Timestamp,Auton Enabled,Odom Degrees Lat,Odom Minutes Lat,Odom Degrees Lon,Odom Minutes Lon,Odom bearing,Odom speed,Accel X,Accel Y,Accel Z,Gyro X,Gyro Y,Gyro Z,Mag X,Mag Y,Mag Z,Roll,Pitch,Yaw,IMU Bearing,GPS Degrees Lat,GPS Minutes Lat,GPS Degrees Lon,GPS Minutes Lon,GPS Bearing,GPS Speed,Nav State,Waypoints Completed,Total Waypoints,Forward/Back,Left/Right,Dampen,Kill,Restart
19:32:30 GMT-0500 Sat Mar 12 2022,true,42,17.597074,-83,-42.60437,303.4375,0,0,0,0,0,0,0,0,0,0,0,0,undefined,0,42,17.597270000000208,-83,-42.604199999999764,999,0.5166666666666667,Done,1,1,0,0,-1,false,false
19:32:31 GMT-0500 Sat Mar 12 2022,true,42,17.597076,-83,-42.604368,303.4375,0,0,0,0,0,0,0,0,0,0,0,0,undefined,0,42,17.597270000000208,-83,-42.604199999999764,999,0.15,Done,1,1,0,0,-1,false,false
19:32:31 GMT-0500 Sat Mar 12 2022,true,42,17.597079,-83,-42.604366,303.4375,0,0,0,0,0,0,0,0,0,0,0,0,undefined,0,42,17.597270000000208,-83,-42.60419000000002,999,0.9,Done,1,1,0,0,-1,false,false
19:32:32 GMT-0500 Sat Mar 12 2022,true,42,17.59708,-83,-42.604364,303.4375,0,0,0,0,0,0,0,0,0,0,0,0,undefined,0,42,17.597270000000208,-83,-42.60419000000002,999,0.7,Done,1,1,0,0,-1,false,false
19:35:06 GMT-0500 Sat Mar 12 2022,false,42,17.596948,-83,-42.603902,303.4375,0,0,0,0,0,0,0,0,0,0,0,0,undefined,0,42,17.596919999999955,-83,-42.60399999999936,999,1.3833333333333333,Off,0,-1818869760,0,0,-1,false,false
19:35:06 GMT-0500 Sat Mar 12 2022,false,42,17.596948,-83,-42.603903,303.4375,0,0,0,0,0,0,0,0,0,0,0,0,undefined,0,42,17.596919999999955,-83,-42.60400999999911,999,0.2833333333333333,Off,0,-1818869760,0,0,-1,false,false
19:35:07 GMT-0500 Sat Mar 12 2022,false,42,17.596948,-83,-42.603904,303.4375,0,0,0,0,0,0,0,0,0,0,0,0,undefined,0,42,17.596919999999955,-83,-42.60402000000067,999,1.5,Off,0,-1818869760,0,0,-1,false,false
19:35:07 GMT-0500 Sat Mar 12 2022,false,42,17.596948,-83,-42.603906,303.4375,0,0,0,0,0,0,0,0,0,0,0,0,undefined,0,42,17.596929999999702,-83,-42.60403000000042,999,0.8666666666666667,Off,0,-1818869760,0,0,-1,false,false
19:35:08 GMT-0500 Sat Mar 12 2022,false,42,17.596947,-83,-42.603907,303.4375,0,0,0,0,0,0,0,0,0,0,0,0,undefined,0,42,17.596929999999702,-83,-42.60403000000042,999,0.25,Off,0,-1818869760,0,0,-1,false,false
19:35:08 GMT-0500 Sat Mar 12 2022,false,42,17.596947,-83,-42.603909,303.4375,0,0,0,0,0,0,0,0,0,0,0,0,undefined,0,42,17.59694000000036,-83,-42.60404000000017,999,0.8666666666666667,Off,0,-1818869760,0,0,-1,false,false
19:35:09 GMT-0500 Sat Mar 12 2022,false,42,17.596947,-83,-42.60391,303.4375,0,0,0,0,0,0,0,0,0,0,0,0,undefined,0,42,17.59694000000036,-83,-42.604049999999916,999,1.05,Off,0,-1818869760,0,0,-1,false,false
19:35:09 GMT-0500 Sat Mar 12 2022,true,42,17.596947,-83,-42.603914,303.5625,0.000046562909408260433,0,0,0,0,0,0,0,0,0,0,0,undefined,0,42,17.596950000000106,-83,-42.604049999999916,999,1.1833333333333333,Drive,0,1,1,0.5,-1,false,false
19:35:10 GMT-0500 Sat Mar 12 2022,true,42,17.596952,-83,-42.60393,304.8125,0.0038701539379887365,0,0,0,0,0,0,0,0,0,0,0,undefined,0,42,17.596950000000106,-83,-42.60405999999966,999,3.283333333333333,Drive,0,1,1,0.5,-1,false,false
19:35:10 GMT-0500 Sat Mar 12 2022,true,42,17.596916,-83,-42.603871,308.3125,0.5024147385377701,0,0,0,0,0,0,0,0,0,0,0,undefined,0,42,17.596959999999854,-83,-42.60405999999966,999,0.6,Drive,0,1,1,0.5,-1,false,false
19:35:11 GMT-0500 Sat Mar 12 2022,true,42,17.596919,-83,-42.603875,311.75,0.11136188530904961,0,0,0,0,0,0,0,0,0,0,0,undefined,0,42,17.5969699999996,-83,-42.60406999999941,999,1.75,Drive,0,1,1,0.5,-1,false,false
19:35:11 GMT-0500 Sat Mar 12 2022,true,42,17.596859,-83,-42.603799,315.9375,0.5314600386840252,0,0,0,0,0,0,0,0,0,0,0,undefined,0,42,17.5969699999996,-83,-42.60406999999941,999,0.3333333333333333,Drive,0,1,1,0.5,-1,false,false
19:35:12 GMT-0500 Sat Mar 12 2022,true,42,17.596784,-83,-42.603718,318.6875,1.0569838892158898,0,0,0,0,0,0,0,0,0,0,0,undefined,0,42,17.59701000000041,-83,-42.60418000000027,291.88,31.9,Drive,0,1,1,0.5,-1,false,false
19:35:12 GMT-0500 Sat Mar 12 2022,true,42,17.596623,-83,-42.603579,322.625,1.6180615551517168,0,0,0,0,0,0,0,0,0,0,0,undefined,0,42,17.59707999999955,-83,-42.60439000000042,299.91,39.8,Drive,0,1,1,0.5,-1,false,false
19:35:13 GMT-0500 Sat Mar 12 2022,true,42,17.596534,-83,-42.603545,325.375,1.00108318128718,0,0,0,0,0,0,0,0,0,0,0,undefined,0,42,17.597160000000258,-83,-42.60461000000032,307.58,37.36666666666667,Drive,0,1,1,0.5,-1,false,false
19:35:13 GMT-0500 Sat Mar 12 2022,true,42,17.596577,-83,-42.603692,328.375,0.69531440003924,0,0,0,0,0,0,0,0,0,0,0,undefined,0,42,17.59725999999955,-83,-42.604810000000725,307.17,38.233333333333334,Drive,0,1,1,0.26560151777266006,-1,false,false
19:35:14 GMT-0500 Sat Mar 12 2022,true,42,17.596645,-83,-42.6039,329.1875,0.1737540510928038,0,0,0,0,0,0,0,0,0,0,0,undefined,0,42,17.597350000000006,-83,-42.60502000000088,306.92,39.95,Drive,0,1,1,0.16294540701196275,-1,false,false
19:35:14 GMT-0500 Sat Mar 12 2022,true,42,17.596814,-83,-42.604212,329.375,0.4784522855558682,0,0,0,0,0,0,0,0,0,0,0,undefined,0,42,17.59743999999955,-83,-42.605170000000726,311.76,41.11666666666667,Drive,0,1,1,0.17359021200075989,-1,false,false
19:35:15 GMT-0500 Sat Mar 12 2022,true,42,17.596867,-83,-42.604436,330.125,0.5036431240907346,0,0,0,0,0,0,0,0,0,0,0,undefined,0,42,17.597539999999753,-83,-42.605359999999564,308.48,36.38333333333333,Drive,0,1,1,0.28919559601077904,-1,false,false
19:35:15 GMT-0500 Sat Mar 12 2022,true,42,17.597013,-83,-42.604727,331.875,0.42605278075441194,0,0,0,0,0,0,0,0,0,0,0,undefined,0,42,17.59766000000036,-83,-42.605530000000726,316.91,38.46666666666667,Drive,0,1,1,0.4781347008132545,-1,false,false
19:35:16 GMT-0500 Sat Mar 12 2022,true,42,17.597215,-83,-42.605015,334.625,0.3093933509295409,0,0,0,0,0,0,0,0,0,0,0,undefined,0,42,17.597799999999552,-83,-42.60570999999982,318.59,43.6,Drive,0,1,1,0.5,-1,false,false
19:35:16 GMT-0500 Sat Mar 12 2022,true,42,17.597341,-83,-42.60528,337.3125,0.26847877674214266,0,0,0,0,0,0,0,0,0,0,0,undefined,0,42,17.59795000000031,-83,-42.60591000000022,314.47,52.4,Drive,0,1,1,0.5,-1,false,false
19:35:17 GMT-0500 Sat Mar 12 2022,true,42,17.597529,-83,-42.605532,339.4375,0.620749355037099,0,0,0,0,0,0,0,0,0,0,0,undefined,0,42,17.598079999999754,-83,-42.60606000000007,316.45,48.916666666666664,Drive,0,1,1,0.5,-1,false,false
19:35:17 GMT-0500 Sat Mar 12 2022,true,42,17.597662,-83,-42.606319,343,0,0,0,0,0,0,0,0,0,0,0,0,undefined,0,42,17.59824000000026,-83,-42.60623999999916,324.51,42.78333333333333,Done,1,1,0,0,-1,false,false
19:35:18 GMT-0500 Sat Mar 12 2022,true,42,17.597728,-83,-42.606321,342.875,0,0,0,0,0,0,0,0,0,0,0,0,undefined,0,42,17.59838000000036,-83,-42.60642000000007,325.71,44.56666666666667,Done,1,1,0,0,-1,false,false
19:35:18 GMT-0500 Sat Mar 12 2022,true,42,17.597789,-83,-42.606334,342.875,0,0,0,0,0,0,0,0,0,0,0,0,undefined,0,42,17.598469999999907,-83,-42.60652999999911,316.01,45.983333333333334,Done,1,1,0,0,-1,false,false
19:35:19 GMT-0500 Sat Mar 12 2022,true,42,17.597846,-83,-42.606352,342.875,0,0,0,0,0,0,0,0,0,0,0,0,undefined,0,42,17.598610000000008,-83,-42.60663000000022,331.16,40.21666666666667,Done,1,1,0,0,-1,false,false
19:35:19 GMT-0500 Sat Mar 12 2022,true,42,17.597923,-83,-42.606383,342.875,0,0,0,0,0,0,0,0,0,0,0,0,undefined,0,42,17.59874000000036,-83,-42.606729999999516,337.99,26.45,Done,1,1,0,0,-1,false,false
19:35:20 GMT-0500 Sat Mar 12 2022,true,42,17.598006,-83,-42.60642,342.875,0,0,0,0,0,0,0,0,0,0,0,0,undefined,0,42,17.598810000000412,-83,-42.60678000000007,999,2.8666666666666667,Done,1,1,0,0,-1,false,false
19:35:20 GMT-0500 Sat Mar 12 2022,true,42,17.598081,-83,-42.606455,342.875,0,0,0,0,0,0,0,0,0,0,0,0,undefined,0,42,17.598799999999756,-83,-42.60678999999982,999,1.1833333333333333,Done,1,1,0,0,-1,false,false
19:35:21 GMT-0500 Sat Mar 12 2022,true,42,17.598148,-83,-42.606487,342.875,0,0,0,0,0,0,0,0,0,0,0,0,undefined,0,42,17.598799999999756,-83,-42.606799999999566,999,1.1833333333333333,Done,1,1,0,0,-1,false,false
19:35:21 GMT-0500 Sat Mar 12 2022,false,42,17.598196,-83,-42.60651,342.875,0,0,0,0,0,0,0,0,0,0,0,0,undefined,0,42,17.598799999999756,-83,-42.606799999999566,999,1.2833333333333334,Off,1,1,0,0,-1,false,false
19:35:22 GMT-0500 Sat Mar 12 2022,false,42,17.59825,-83,-42.606536,342.875,0,0,0,0,0,0,0,0,0,0,0,0,undefined,0,42,17.598790000000008,-83,-42.606799999999566,999,1.45,Off,1,1,0,0,-1,false,false
19:35:22 GMT-0500 Sat Mar 12 2022,false,42,17.598297,-83,-42.606559,342.875,0,0,0,0,0,0,0,0,0,0,0,0,undefined,0,42,17.598790000000008,-83,-42.606799999999566,999,1.5333333333333334,Off,1,1,0,0,-1,false,false
19:35:23 GMT-0500 Sat Mar 12 2022,false,42,17.598339,-83,-42.60658,342.875,0,0,0,0,0,0,0,0,0,0,0,0,undefined,0,42,17.598790000000008,-83,-42.606799999999566,999,0.9333333333333333,Off,1,1,0,0,-1,false,false
19:35:23 GMT-0500 Sat Mar 12 2022,false,42,17.598376,-83,-42.606598,342.875,0,0,0,0,0,0,0,0,0,0,0,0,undefined,0,42,17.59878000000026,-83,-42.606799999999566,999,1.2333333333333334,Off,1,1,0,0,-1,false,false
19:35:24 GMT-0500 Sat Mar 12 2022,false,42,17.598409,-83,-42.606614,342.875,0,0,0,0,0,0,0,0,0,0,0,0,undefined,0,42,17.59878000000026,-83,-42.606799999999566,999,0.8833333333333333,Off,1,1,0,0,-1,false,false
19:35:24 GMT-0500 Sat Mar 12 2022,false,42,17.598433,-83,-42.606626,342.875,0,0,0,0,0,0,0,0,0,0,0,0,undefined,0,42,17.59878000000026,-83,-42.606809999999314,999,2.65,Off,1,1,0,0,-1,false,false
19:35:25 GMT-0500 Sat Mar 12 2022,false,42,17.598459,-83,-42.60664,342.875,0,0,0,0,0,0,0,0,0,0,0,0,undefined,0,42,17.59878000000026,-83,-42.606809999999314,999,1.7666666666666666,Off,1,1,0,0,-1,false,false
19:35:25 GMT-0500 Sat Mar 12 2022,false,42,17.598483,-83,-42.606653,342.875,0,0,0,0,0,0,0,0,0,0,0,0,undefined,0,42,17.59878000000026,-83,-42.606809999999314,999,1.5333333333333334,Off,1,1,0,0,-1,false,false
19:35:26 GMT-0500 Sat Mar 12 2022,false,42,17.598505,-83,-42.606665,342.875,0,0,0,0,0,0,0,0,0,0,0,0,undefined,0,42,17.59878000000026,-83,-42.60682000000088,999,1.8833333333333333,Off,1,1,0,0,-1,false,false
19:35:26 GMT-0500 Sat Mar 12 2022,false,42,17.598524,-83,-42.606676,342.875,0,0,0,0,0,0,0,0,0,0,0,0,undefined,0,42,17.598769999999604,-83,-42.60683000000063,999,0.45,Off,1,1,0,0,-1,false,false
19:35:27 GMT-0500 Sat Mar 12 2022,false,42,17.59854,-83,-42.606687,342.875,0,0,0,0,0,0,0,0,0,0,0,0,undefined,0,42,17.598769999999604,-83,-42.60683000000063,999,0.95,Off,1,1,0,0,-1,false,false
19:35:27 GMT-0500 Sat Mar 12 2022,false,42,17.598553,-83,-42.606695,342.875,0,0,0,0,0,0,0,0,0,0,0,0,undefined,0,42,17.598769999999604,-83,-42.606840000000375,999,0.3333333333333333,Off,1,1,0,0,-1,false,false
19:35:28 GMT-0500 Sat Mar 12 2022,false,42,17.598567,-83,-42.606705,342.875,0,0,0,0,0,0,0,0,0,0,0,0,undefined,0,42,17.598769999999604,-83,-42.60685000000012,999,2.1666666666666665,Off,1,1,0,0,-1,false,false
19:35:28 GMT-0500 Sat Mar 12 2022,false,42,17.59858,-83,-42.606714,342.875,0,0,0,0,0,0,0,0,0,0,0,0,undefined,0,42,17.598769999999604,-83,-42.60685000000012,999,1.55,Off,1,1,0,0,-1,false,false
19:35:29 GMT-0500 Sat Mar 12 2022,false,42,17.598592,-83,-42.606723,342.875,0,0,0,0,0,0,0,0,0,0,0,0,undefined,0,42,17.598769999999604,-83,-42.60685999999987,999,0.4,Off,1,1,0,0,-1,false,false
19:35:29 GMT-0500 Sat Mar 12 2022,false,42,17.5986,-83,-42.60673,342.875,0,0,0,0,0,0,0,0,0,0,0,0,undefined,0,42,17.598769999999604,-83,-42.60686999999962,999,2.066666666666667,Off,1,1,0,0,-1,false,false
19:35:30 GMT-0500 Sat Mar 12 2022,false,42,17.59861,-83,-42.606739,342.875,0,0,0,0,0,0,0,0,0,0,0,0,undefined,0,42,17.598769999999604,-83,-42.606879999999364,999,1.1333333333333333,Off,1,1,0,0,-1,false,false
19:35:30 GMT-0500 Sat Mar 12 2022,false,42,17.598619,-83,-42.606747,342.875,0,0,0,0,0,0,0,0,0,0,0,0,undefined,0,42,17.598769999999604,-83,-42.60690000000068,999,0.35,Off,1,1,0,0,-1,false,false
19:35:31 GMT-0500 Sat Mar 12 2022,false,42,17.598628,-83,-42.606756,342.875,0,0,0,0,0,0,0,0,0,0,0,0,undefined,0,42,17.598759999999857,-83,-42.60690000000068,999,1.3,Off,1,1,0,0,-1,false,false
19:35:31 GMT-0500 Sat Mar 12 2022,false,42,17.598635,-83,-42.606764,342.875,0,0,0,0,0,0,0,0,0,0,0,0,undefined,0,42,17.598759999999857,-83,-42.606910000000425,999,1.6666666666666667,Off,1,1,0,0,-1,false,false
19:35:32 GMT-0500 Sat Mar 12 2022,false,42,17.598642,-83,-42.606772,342.875,0,0,0,0,0,0,0,0,0,0,0,0,undefined,0,42,17.598759999999857,-83,-42.60692000000017,999,2.433333333333333,Off,1,1,0,0,-1,false,false
19:35:32 GMT-0500 Sat Mar 12 2022,false,42,17.598647,-83,-42.606778,342.875,0,0,0,0,0,0,0,0,0,0,0,0,undefined,0,42,17.598759999999857,-83,-42.60692000000017,999,0.43333333333333335,Off,1,1,0,0,-1,false,false
19:35:33 GMT-0500 Sat Mar 12 2022,false,42,17.598652,-83,-42.606785,342.875,0,0,0,0,0,0,0,0,0,0,0,0,undefined,0,42,17.59875000000011,-83,-42.60692000000017,999,0.8166666666666667,Off,1,1,0,0,-1,false,false
19:35:33 GMT-0500 Sat Mar 12 2022,false,42,17.598657,-83,-42.606792,342.875,0,0,0,0,0,0,0,0,0,0,0,0,undefined,0,42,17.59875000000011,-83,-42.60692999999992,999,6.116666666666666,Off,1,1,0,0,-1,false,false
19:35:34 GMT-0500 Sat Mar 12 2022,false,42,17.598661,-83,-42.606799,342.875,0,0,0,0,0,0,0,0,0,0,0,0,undefined,0,42,17.59874000000036,-83,-42.60692999999992,999,2.716666666666667,Off,1,1,0,0,-1,false,false
19:35:34 GMT-0500 Sat Mar 12 2022,false,42,17.598665,-83,-42.606805,342.875,0,0,0,0,0,0,0,0,0,0,0,0,undefined,0,42,17.59874000000036,-83,-42.60693999999967,999,2.3,Off,1,1,0,0,-1,false,false
19:35:35 GMT-0500 Sat Mar 12 2022,false,42,17.598669,-83,-42.606811,342.875,0,0,0,0,0,0,0,0,0,0,0,0,undefined,0,42,17.59874000000036,-83,-42.60693999999967,999,1.9166666666666667,Off,1,1,0,0,-1,false,false
19:35:35 GMT-0500 Sat Mar 12 2022,false,42,17.598671,-83,-42.606816,342.875,0,0,0,0,0,0,0,0,0,0,0,0,undefined,0,42,17.598729999999705,-83,-42.60693999999967,999,1.2666666666666666,Off,1,1,0,0,-1,false,false
19:35:36 GMT-0500 Sat Mar 12 2022,false,42,17.598673,-83,-42.606821,342.875,0,0,0,0,0,0,0,0,0,0,0,0,undefined,0,42,17.598729999999705,-83,-42.60693999999967,999,3.5833333333333335,Off,1,1,0,0,-1,false,false
19:35:36 GMT-0500 Sat Mar 12 2022,false,42,17.598676,-83,-42.606827,342.875,0,0,0,0,0,0,0,0,0,0,0,0,undefined,0,42,17.598729999999705,-83,-42.606949999999415,999,1.2333333333333334,Off,1,1,0,0,-1,false,false
19:35:37 GMT-0500 Sat Mar 12 2022,false,42,17.598678,-83,-42.606831,342.875,0,0,0,0,0,0,0,0,0,0,0,0,undefined,0,42,17.598729999999705,-83,-42.606949999999415,999,2.716666666666667,Off,1,1,0,0,-1,false,false
19:35:37 GMT-0500 Sat Mar 12 2022,false,42,17.598681,-83,-42.606837,342.875,0,0,0,0,0,0,0,0,0,0,0,0,undefined,0,42,17.598729999999705,-83,-42.60695999999916,999,1.6166666666666667,Off,1,1,0,0,-1,false,false
19:35:38 GMT-0500 Sat Mar 12 2022,false,42,17.598683,-83,-42.606842,342.875,0,0,0,0,0,0,0,0,0,0,0,0,undefined,0,42,17.598729999999705,-83,-42.60697000000073,999,2,Off,1,1,0,0,-1,false,false
19:35:38 GMT-0500 Sat Mar 12 2022,false,42,17.598685,-83,-42.606847,342.875,0,0,0,0,0,0,0,0,0,0,0,0,undefined,0,42,17.59874000000036,-83,-42.60697000000073,999,1.9833333333333334,Off,1,1,0,0,-1,false,false
19:35:39 GMT-0500 Sat Mar 12 2022,false,42,17.598687,-83,-42.606851,342.875,0,0,0,0,0,0,0,0,0,0,0,0,undefined,0,42,17.598729999999705,-83,-42.60695999999916,999,2.6666666666666665,Off,1,1,0,0,-1,false,false
19:35:39 GMT-0500 Sat Mar 12 2022,false,42,17.598688,-83,-42.606856,342.875,0,0,0,0,0,0,0,0,0,0,0,0,undefined,0,42,17.598729999999705,-83,-42.60695999999916,999,0.5,Off,1,1,0,0,-1,false,false
19:35:40 GMT-0500 Sat Mar 12 2022,false,42,17.59869,-83,-42.60686,342.875,0,0,0,0,0,0,0,0,0,0,0,0,undefined,0,42,17.598729999999705,-83,-42.60695999999916,999,0.5666666666666667,Off,1,1,0,0,-1,false,false
19:35:40 GMT-0500 Sat Mar 12 2022,false,42,17.598691,-83,-42.606863,342.875,0,0,0,0,0,0,0,0,0,0,0,0,undefined,0,42,17.59874000000036,-83,-42.606949999999415,999,0.45,Off,1,1,0,0,-1,false,false
19:35:41 GMT-0500 Sat Mar 12 2022,false,42,17.598693,-83,-42.606866,342.875,0,0,0,0,0,0,0,0,0,0,0,0,undefined,0,42,17.598729999999705,-83,-42.606949999999415,999,1.65,Off,1,1,0,0,-1,false,false
19:35:41 GMT-0500 Sat Mar 12 2022,false,42,17.598695,-83,-42.606869,342.875,0,0,0,0,0,0,0,0,0,0,0,0,undefined,0,42,17.59874000000036,-83,-42.606949999999415,999,1.6,Off,1,1,0,0,-1,false,false
19:35:42 GMT-0500 Sat Mar 12 2022,false,42,17.598696,-83,-42.606872,342.875,0,0,0,0,0,0,0,0,0,0,0,0,undefined,0,42,17.59874000000036,-83,-42.60695999999916,999,0.5666666666666667,Off,1,1,0,0,-1,false,false
19:35:42 GMT-0500 Sat Mar 12 2022,false,42,17.598698,-83,-42.606875,342.875,0,0,0,0,0,0,0,0,0,0,0,0,undefined,0,42,17.59875000000011,-83,-42.60695999999916,999,1.3,Off,1,1,0,0,-1,false,false
19:35:43 GMT-0500 Sat Mar 12 2022,false,42,17.598699,-83,-42.606877,342.875,0,0,0,0,0,0,0,0,0,0,0,0,undefined,0,42,17.59874000000036,-83,-42.606949999999415,999,1.5833333333333333,Off,1,1,0,0,-1,false,false
19:35:43 GMT-0500 Sat Mar 12 2022,false,42,17.598701,-83,-42.60688,342.875,0,0,0,0,0,0,0,0,0,0,0,0,undefined,0,42,17.598729999999705,-83,-42.60693999999967,999,2.3333333333333335,Off,1,1,0,0,-1,false,false
19:35:44 GMT-0500 Sat Mar 12 2022,false,42,17.598702,-83,-42.606882,342.875,0,0,0,0,0,0,0,0,0,0,0,0,undefined,0,42,17.598729999999705,-83,-42.60692999999992,999,1.7166666666666666,Off,1,1,0,0,-1,false,false
19:35:44 GMT-0500 Sat Mar 12 2022,false,42,17.598703,-83,-42.606883,342.875,0,0,0,0,0,0,0,0,0,0,0,0,undefined,0,42,17.598729999999705,-83,-42.60692000000017,999,3.0833333333333335,Off,1,1,0,0,-1,false,false
19:35:45 GMT-0500 Sat Mar 12 2022,false,42,17.598703,-83,-42.606884,342.875,0,0,0,0,0,0,0,0,0,0,0,0,undefined,0,42,17.598719999999958,-83,-42.606910000000425,999,0.36666666666666664,Off,1,1,0,0,-1,false,false
19:35:45 GMT-0500 Sat Mar 12 2022,false,42,17.598704,-83,-42.606885,342.875,0,0,0,0,0,0,0,0,0,0,0,0,undefined,0,42,17.59871000000021,-83,-42.60688999999911,999,2.716666666666667,Off,1,1,0,0,-1,false,false
19:35:46 GMT-0500 Sat Mar 12 2022,false,42,17.598704,-83,-42.606885,342.875,0,0,0,0,0,0,0,0,0,0,0,0,undefined,0,42,17.59871000000021,-83,-42.60688999999911,999,1.7666666666666666,Off,1,1,0,0,-1,false,false
19:35:46 GMT-0500 Sat Mar 12 2022,false,42,17.598704,-83,-42.606885,342.875,0,0,0,0,0,0,0,0,0,0,0,0,undefined,0,42,17.59871000000021,-83,-42.60688999999911,999,0.38333333333333336,Off,1,1,0,0,-1,false,false
19:35:47 GMT-0500 Sat Mar 12 2022,false,42,17.598704,-83,-42.606885,342.875,0,0,0,0,0,0,0,0,0,0,0,0,undefined,0,42,17.59871000000021,-83,-42.606879999999364,999,2.316666666666667,Off,1,1,0,0,-1,false,false
19:35:47 GMT-0500 Sat Mar 12 2022,false,42,17.598704,-83,-42.606884,342.875,0,0,0,0,0,0,0,0,0,0,0,0,undefined,0,42,17.598699999999553,-83,-42.60686999999962,999,2.0166666666666666,Off,1,1,0,0,-1,false,false
19:35:48 GMT-0500 Sat Mar 12 2022,false,42,17.598704,-83,-42.606884,342.875,0,0,0,0,0,0,0,0,0,0,0,0,undefined,0,42,17.598699999999553,-83,-42.60685999999987,999,0.43333333333333335,Off,1,1,0,0,-1,false,false
19:35:48 GMT-0500 Sat Mar 12 2022,false,42,17.598704,-83,-42.606883,342.875,0,0,0,0,0,0,0,0,0,0,0,0,undefined,0,42,17.598689999999806,-83,-42.60685000000012,999,0.7166666666666667,Off,1,1,0,0,-1,false,false
19:35:49 GMT-0500 Sat Mar 12 2022,false,42,17.598703,-83,-42.606882,342.875,0,0,0,0,0,0,0,0,0,0,0,0,undefined,0,42,17.59868000000006,-83,-42.60685000000012,999,0.8833333333333333,Off,1,1,0,0,-1,false,false
19:35:49 GMT-0500 Sat Mar 12 2022,false,42,17.598703,-83,-42.606881,342.875,0,0,0,0,0,0,0,0,0,0,0,0,undefined,0,42,17.59867000000031,-83,-42.606840000000375,999,0.6333333333333333,Off,1,1,0,0,-1,false,false
19:35:50 GMT-0500 Sat Mar 12 2022,false,42,17.598702,-83,-42.60688,342.875,0,0,0,0,0,0,0,0,0,0,0,0,undefined,0,42,17.598659999999654,-83,-42.60683000000063,999,2.1333333333333333,Off,1,1,0,0,-1,false,false
19:35:50 GMT-0500 Sat Mar 12 2022,false,42,17.5987,-83,-42.606879,342.875,0,0,0,0,0,0,0,0,0,0,0,0,undefined,0,42,17.598649999999907,-83,-42.60683000000063,999,0.55,Off,1,1,0,0,-1,false,false
19:35:51 GMT-0500 Sat Mar 12 2022,false,42,17.598699,-83,-42.606878,342.875,0,0,0,0,0,0,0,0,0,0,0,0,undefined,0,42,17.59864000000016,-83,-42.60683000000063,999,1.4833333333333334,Off,1,1,0,0,-1,false,false
19:35:51 GMT-0500 Sat Mar 12 2022,false,42,17.598697,-83,-42.606876,342.875,0,0,0,0,0,0,0,0,0,0,0,0,undefined,0,42,17.598630000000412,-83,-42.60683000000063,999,0.7833333333333333,Off,1,1,0,0,-1,false,false
19:35:52 GMT-0500 Sat Mar 12 2022,false,42,17.598696,-83,-42.606875,342.875,0,0,0,0,0,0,0,0,0,0,0,0,undefined,0,42,17.598630000000412,-83,-42.60683000000063,999,0.43333333333333335,Off,1,1,0,0,-1,false,false
19:35:52 GMT-0500 Sat Mar 12 2022,false,42,17.598694,-83,-42.606874,342.875,0,0,0,0,0,0,0,0,0,0,0,0,undefined,0,42,17.598619999999755,-83,-42.60683000000063,999,1.0333333333333334,Off,1,1,0,0,-1,false,false
19:35:53 GMT-0500 Sat Mar 12 2022,false,42,17.598692,-83,-42.606873,342.875,0,0,0,0,0,0,0,0,0,0,0,0,undefined,0,42,17.598619999999755,-83,-42.606840000000375,999,1.95,Off,1,1,0,0,-1,false,false
19:35:53 GMT-0500 Sat Mar 12 2022,false,42,17.59869,-83,-42.606872,342.875,0,0,0,0,0,0,0,0,0,0,0,0,undefined,0,42,17.598610000000008,-83,-42.60683000000063,999,1.3,Off,1,1,0,0,-1,false,false
19:35:54 GMT-0500 Sat Mar 12 2022,false,42,17.598688,-83,-42.606871,342.875,0,0,0,0,0,0,0,0,0,0,0,0,undefined,0,42,17.59860000000026,-83,-42.60683000000063,999,1.15,Off,1,1,0,0,-1,false,false
19:35:54 GMT-0500 Sat Mar 12 2022,false,42,17.598686,-83,-42.60687,342.875,0,0,0,0,0,0,0,0,0,0,0,0,undefined,0,42,17.59860000000026,-83,-42.60683000000063,999,2.033333333333333,Off,1,1,0,0,-1,false,false
19:35:55 GMT-0500 Sat Mar 12 2022,false,42,17.598683,-83,-42.606869,342.875,0,0,0,0,0,0,0,0,0,0,0,0,undefined,0,42,17.598589999999604,-83,-42.60683000000063,999,2.6,Off,1,1,0,0,-1,false,false
19:35:55 GMT-0500 Sat Mar 12 2022,false,42,17.59868,-83,-42.606868,342.875,0,0,0,0,0,0,0,0,0,0,0,0,undefined,0,42,17.59857000000011,-83,-42.60683000000063,999,2.1,Off,1,1,0,0,-1,false,false
19:35:56 GMT-0500 Sat Mar 12 2022,false,42,17.598678,-83,-42.606867,342.875,0,0,0,0,0,0,0,0,0,0,0,0,undefined,0,42,17.59857000000011,-83,-42.60683000000063,999,1.1833333333333333,Off,1,1,0,0,-1,false,false
19:35:56 GMT-0500 Sat Mar 12 2022,false,42,17.598675,-83,-42.606866,342.875,0,0,0,0,0,0,0,0,0,0,0,0,undefined,0,42,17.598549999999705,-83,-42.60683000000063,999,1.95,Off,1,1,0,0,-1,false,false
19:35:57 GMT-0500 Sat Mar 12 2022,false,42,17.598672,-83,-42.606865,342.875,0,0,0,0,0,0,0,0,0,0,0,0,undefined,0,42,17.598539999999957,-83,-42.60683000000063,999,2.683333333333333,Off,1,1,0,0,-1,false,false
19:35:57 GMT-0500 Sat Mar 12 2022,false,42,17.598668,-83,-42.606864,342.875,0,0,0,0,0,0,0,0,0,0,0,0,undefined,0,42,17.598469999999907,-83,-42.60682000000088,999,1,Off,1,1,0,0,-1,false,false
19:35:58 GMT-0500 Sat Mar 12 2022,false,42,17.598663,-83,-42.606863,342.875,0,0,0,0,0,0,0,0,0,0,0,0,undefined,0,42,17.598469999999907,-83,-42.60683000000063,999,0.3333333333333333,Off,1,1,0,0,-1,false,false
19:35:58 GMT-0500 Sat Mar 12 2022,false,42,17.598659,-83,-42.606862,342.875,0,0,0,0,0,0,0,0,0,0,0,0,undefined,0,42,17.59846000000016,-83,-42.60683000000063,999,1,Off,1,1,0,0,-1,false,false
19:35:59 GMT-0500 Sat Mar 12 2022,false,42,17.598655,-83,-42.606862,342.875,0,0,0,0,0,0,0,0,0,0,0,0,undefined,0,42,17.598450000000412,-83,-42.60683000000063,999,2.3,Off,1,1,0,0,-1,false,false
19:35:59 GMT-0500 Sat Mar 12 2022,false,42,17.59865,-83,-42.606861,342.875,0,0,0,0,0,0,0,0,0,0,0,0,undefined,0,42,17.598439999999755,-83,-42.60682000000088,999,2.433333333333333,Off,1,1,0,0,-1,false,false
19:36:00 GMT-0500 Sat Mar 12 2022,false,42,17.598645,-83,-42.60686,342.875,0,0,0,0,0,0,0,0,0,0,0,0,undefined,0,42,17.598439999999755,-83,-42.606840000000375,999,5.033333333333333,Off,1,1,0,0,-1,false,false
19:36:00 GMT-0500 Sat Mar 12 2022,false,42,17.59864,-83,-42.60686,342.875,0,0,0,0,0,0,0,0,0,0,0,0,undefined,0,42,17.598439999999755,-83,-42.606840000000375,999,2.95,Off,1,1,0,0,-1,false,false
19:36:01 GMT-0500 Sat Mar 12 2022,false,42,17.598636,-83,-42.606859,342.875,0,0,0,0,0,0,0,0,0,0,0,0,undefined,0,42,17.598430000000008,-83,-42.606840000000375,999,0.95,Off,1,1,0,0,-1,false,false
19:36:01 GMT-0500 Sat Mar 12 2022,false,42,17.598632,-83,-42.606859,342.875,0,0,0,0,0,0,0,0,0,0,0,0,undefined,0,42,17.59842000000026,-83,-42.606840000000375,999,2.6666666666666665,Off,1,1,0,0,-1,false,false
19:36:02 GMT-0500 Sat Mar 12 2022,false,42,17.598628,-83,-42.606858,342.875,0,0,0,0,0,0,0,0,0,0,0,0,undefined,0,42,17.598399999999856,-83,-42.606840000000375,999,1.2333333333333334,Off,1,1,0,0,-1,false,false
19:36:02 GMT-0500 Sat Mar 12 2022,false,42,17.598622,-83,-42.606858,342.875,0,0,0,0,0,0,0,0,0,0,0,0,undefined,0,42,17.59839000000011,-83,-42.60685000000012,999,2.6666666666666665,Off,1,1,0,0,-1,false,false
19:36:03 GMT-0500 Sat Mar 12 2022,false,42,17.598617,-83,-42.606858,342.875,0,0,0,0,0,0,0,0,0,0,0,0,undefined,0,42,17.59838000000036,-83,-42.60685000000012,999,2.533333333333333,Off,1,1,0,0,-1,false,false
19:36:03 GMT-0500 Sat Mar 12 2022,false,42,17.598613,-83,-42.606858,342.875,0,0,0,0,0,0,0,0,0,0,0,0,undefined,0,42,17.598369999999704,-83,-42.60685000000012,999,1.1833333333333333,Off,1,1,0,0,-1,false,false
19:36:04 GMT-0500 Sat Mar 12 2022,false,42,17.598607,-83,-42.606857,342.875,0,0,0,0,0,0,0,0,0,0,0,0,undefined,0,42,17.598359999999957,-83,-42.606840000000375,999,0.35,Off,1,1,0,0,-1,false,false
19:36:04 GMT-0500 Sat Mar 12 2022,false,42,17.598602,-83,-42.606857,342.875,0,0,0,0,0,0,0,0,0,0,0,0,undefined,0,42,17.59835000000021,-83,-42.606840000000375,999,2.283333333333333,Off,1,1,0,0,-1,false,false
19:36:05 GMT-0500 Sat Mar 12 2022,false,42,17.598596,-83,-42.606856,342.875,0,0,0,0,0,0,0,0,0,0,0,0,undefined,0,42,17.598339999999553,-83,-42.606840000000375,999,2.1,Off,1,1,0,0,-1,false,false
19:36:05 GMT-0500 Sat Mar 12 2022,false,42,17.598591,-83,-42.606856,342.875,0,0,0,0,0,0,0,0,0,0,0,0,undefined,0,42,17.598339999999553,-83,-42.60683000000063,999,1.45,Off,1,1,0,0,-1,false,false
19:36:06 GMT-0500 Sat Mar 12 2022,false,42,17.598586,-83,-42.606855,342.875,0,0,0,0,0,0,0,0,0,0,0,0,undefined,0,42,17.598329999999805,-83,-42.60683000000063,999,1.2833333333333334,Off,1,1,0,0,-1,false,false
19:36:06 GMT-0500 Sat Mar 12 2022,false,42,17.598582,-83,-42.606855,342.875,0,0,0,0,0,0,0,0,0,0,0,0,undefined,0,42,17.598320000000058,-83,-42.60682000000088,999,0.4666666666666667,Off,1,1,0,0,-1,false,false
19:36:07 GMT-0500 Sat Mar 12 2022,false,42,17.598576,-83,-42.606854,342.875,0,0,0,0,0,0,0,0,0,0,0,0,undefined,0,42,17.598320000000058,-83,-42.60682000000088,999,1.5333333333333334,Off,1,1,0,0,-1,false,false
19:36:07 GMT-0500 Sat Mar 12 2022,false,42,17.598571,-83,-42.606853,342.875,0,0,0,0,0,0,0,0,0,0,0,0,undefined,0,42,17.59831000000031,-83,-42.606809999999314,999,0.43333333333333335,Off,1,1,0,0,-1,false,false
19:36:08 GMT-0500 Sat Mar 12 2022,false,42,17.598566,-83,-42.606852,342.875,0,0,0,0,0,0,0,0,0,0,0,0,undefined,0,42,17.59831000000031,-83,-42.606799999999566,999,1.4166666666666667,Off,1,1,0,0,-1,false,false
19:36:08 GMT-0500 Sat Mar 12 2022,false,42,17.598561,-83,-42.606851,342.875,0,0,0,0,0,0,0,0,0,0,0,0,undefined,0,42,17.598299999999654,-83,-42.606799999999566,999,0.9166666666666666,Off,1,1,0,0,-1,false,false
19:36:09 GMT-0500 Sat Mar 12 2022,false,42,17.598556,-83,-42.60685,342.875,0,0,0,0,0,0,0,0,0,0,0,0,undefined,0,42,17.598299999999654,-83,-42.60678999999982,999,1.6166666666666667,Off,1,1,0,0,-1,false,false
19:36:09 GMT-0500 Sat Mar 12 2022,false,42,17.598551,-83,-42.606849,342.875,0,0,0,0,0,0,0,0,0,0,0,0,undefined,0,42,17.598289999999906,-83,-42.60678000000007,999,1.9,Off,1,1,0,0,-1,false,false
19:36:10 GMT-0500 Sat Mar 12 2022,false,42,17.598546,-83,-42.606848,342.875,0,0,0,0,0,0,0,0,0,0,0,0,undefined,0,42,17.598289999999906,-83,-42.60678000000007,999,0.6,Off,1,1,0,0,-1,false,false
19:36:10 GMT-0500 Sat Mar 12 2022,false,42,17.598541,-83,-42.606847,342.875,0,0,0,0,0,0,0,0,0,0,0,0,undefined,0,42,17.59828000000016,-83,-42.606770000000324,999,1.4666666666666666,Off,1,1,0,0,-1,false,false
19:36:11 GMT-0500 Sat Mar 12 2022,false,42,17.598536,-83,-42.606845,342.875,0,0,0,0,0,0,0,0,0,0,0,0,undefined,0,42,17.59828000000016,-83,-42.606770000000324,999,0.5333333333333333,Off,1,1,0,0,-1,false,false
19:36:11 GMT-0500 Sat Mar 12 2022,false,42,17.598533,-83,-42.606844,342.875,0,0,0,0,0,0,0,0,0,0,0,0,undefined,0,42,17.59828000000016,-83,-42.606770000000324,999,2.4,Off,1,1,0,0,-1,false,false
19:36:12 GMT-0500 Sat Mar 12 2022,false,42,17.598528,-83,-42.606843,342.875,0,0,0,0,0,0,0,0,0,0,0,0,undefined,0,42,17.59827000000041,-83,-42.606770000000324,999,1.6,Off,1,1,0,0,-1,false,false
19:36:12 GMT-0500 Sat Mar 12 2022,false,42,17.598523,-83,-42.606841,342.875,0,0,0,0,0,0,0,0,0,0,0,0,undefined,0,42,17.59827000000041,-83,-42.60676000000058,999,1.3,Off,1,1,0,0,-1,false,false
19:36:13 GMT-0500 Sat Mar 12 2022,false,42,17.598518,-83,-42.60684,342.875,0,0,0,0,0,0,0,0,0,0,0,0,undefined,0,42,17.598259999999755,-83,-42.60676000000058,999,0.9666666666666667,Off,1,1,0,0,-1,false,false
19:36:13 GMT-0500 Sat Mar 12 2022,false,42,17.598513,-83,-42.606838,342.875,0,0,0,0,0,0,0,0,0,0,0,0,undefined,0,42,17.598259999999755,-83,-42.60676000000058,999,0.16666666666666666,Off,1,1,0,0,-1,false,false
19:36:14 GMT-0500 Sat Mar 12 2022,false,42,17.59851,-83,-42.606837,342.875,0,0,0,0,0,0,0,0,0,0,0,0,undefined,0,42,17.598250000000007,-83,-42.60675000000083,999,1.5333333333333334,Off,1,1,0,0,-1,false,false
19:36:14 GMT-0500 Sat Mar 12 2022,false,42,17.598505,-83,-42.606835,342.875,0,0,0,0,0,0,0,0,0,0,0,0,undefined,0,42,17.59824000000026,-83,-42.60675000000083,999,1.5333333333333334,Off,1,1,0,0,-1,false,false
19:36:15 GMT-0500 Sat Mar 12 2022,false,42,17.5985,-83,-42.606834,342.875,0,0,0,0,0,0,0,0,0,0,0,0,undefined,0,42,17.59824000000026,-83,-42.60675000000083,999,2.533333333333333,Off,1,1,0,0,-1,false,false
19:36:15 GMT-0500 Sat Mar 12 2022,false,42,17.598496,-83,-42.606832,342.875,0,0,0,0,0,0,0,0,0,0,0,0,undefined,0,42,17.59824000000026,-83,-42.60675000000083,999,1.3666666666666667,Off,1,1,0,0,-1,false,false
19:36:16 GMT-0500 Sat Mar 12 2022,false,42,17.598492,-83,-42.606831,342.875,0,0,0,0,0,0,0,0,0,0,0,0,undefined,0,42,17.59824000000026,-83,-42.60675000000083,999,2.3833333333333333,Off,1,1,0,0,-1,false,false
19:36:16 GMT-0500 Sat Mar 12 2022,false,42,17.598487,-83,-42.60683,342.875,0,0,0,0,0,0,0,0,0,0,0,0,undefined,0,42,17.59824000000026,-83,-42.60673999999926,999,1.5166666666666666,Off,1,1,0,0,-1,false,false
19:36:17 GMT-0500 Sat Mar 12 2022,false,42,17.598483,-83,-42.606828,342.875,0,0,0,0,0,0,0,0,0,0,0,0,undefined,0,42,17.59824000000026,-83,-42.60673999999926,999,0.36666666666666664,Off,1,1,0,0,-1,false,false
19:36:17 GMT-0500 Sat Mar 12 2022,false,42,17.598479,-83,-42.606827,342.875,0,0,0,0,0,0,0,0,0,0,0,0,undefined,0,42,17.59824000000026,-83,-42.60673999999926,999,1.7333333333333334,Off,1,1,0,0,-1,false,false
19:36:18 GMT-0500 Sat Mar 12 2022,false,42,17.598475,-83,-42.606825,342.875,0,0,0,0,0,0,0,0,0,0,0,0,undefined,0,42,17.59824000000026,-83,-42.60673999999926,999,0.8666666666666667,Off,1,1,0,0,-1,false,false
19:36:18 GMT-0500 Sat Mar 12 2022,false,42,17.598471,-83,-42.606824,342.875,0,0,0,0,0,0,0,0,0,0,0,0,undefined,0,42,17.59824000000026,-83,-42.606729999999516,999,2.9,Off,1,1,0,0,-1,false,false
19:36:19 GMT-0500 Sat Mar 12 2022,false,42,17.598468,-83,-42.606822,342.875,0,0,0,0,0,0,0,0,0,0,0,0,undefined,0,42,17.59824000000026,-83,-42.606729999999516,999,1.1166666666666667,Off,1,1,0,0,-1,false,false
19:36:19 GMT-0500 Sat Mar 12 2022,false,42,17.598464,-83,-42.606821,342.875,0,0,0,0,0,0,0,0,0,0,0,0,undefined,0,42,17.59824000000026,-83,-42.606729999999516,999,1.5333333333333334,Off,1,1,0,0,-1,false,false
19:36:20 GMT-0500 Sat Mar 12 2022,false,42,17.59846,-83,-42.606819,342.875,0,0,0,0,0,0,0,0,0,0,0,0,undefined,0,42,17.59824000000026,-83,-42.606729999999516,999,1.7,Off,1,1,0,0,-1,false,false
19:36:20 GMT-0500 Sat Mar 12 2022,false,42,17.598456,-83,-42.606818,342.875,0,0,0,0,0,0,0,0,0,0,0,0,undefined,0,42,17.598250000000007,-83,-42.606729999999516,999,1.65,Off,1,1,0,0,-1,false,false
19:36:21 GMT-0500 Sat Mar 12 2022,false,42,17.598454,-83,-42.606817,342.875,0,0,0,0,0,0,0,0,0,0,0,0,undefined,0,42,17.598250000000007,-83,-42.606729999999516,999,1.3166666666666667,Off,1,1,0,0,-1,false,false
19:36:21 GMT-0500 Sat Mar 12 2022,false,42,17.598454,-83,-42.606817,342.875,0,0,0,0,0,0,0,0,0,0,0,0,undefined,0,42,17.598250000000007,-83,-42.606729999999516,999,1.6,Off,1,1,0,0,-1,false,false
19:36:22 GMT-0500 Sat Mar 12 2022,false,42,17.598454,-83,-42.606817,342.875,0,0,0,0,0,0,0,0,0,0,0,0,undefined,0,42,17.598250000000007,-83,-42.606729999999516,999,2.066666666666667,Off,1,1,0,0,-1,false,false
19:36:22 GMT-0500 Sat Mar 12 2022,false,42,17.598454,-83,-42.606817,342.875,0,0,0,0,0,0,0,0,0,0,0,0,undefined,0,42,17.598250000000007,-83,-42.606729999999516,999,0.7833333333333333,Off,1,1,0,0,-1,false,false
19:36:23 GMT-0500 Sat Mar 12 2022,false,42,17.598454,-83,-42.606817,342.875,0,0,0,0,0,0,0,0,0,0,0,0,undefined,0,42,17.598250000000007,-83,-42.606729999999516,999,1.0833333333333333,Off,1,1,0,0,-1,false,false
19:36:23 GMT-0500 Sat Mar 12 2022,false,42,17.598454,-83,-42.606817,342.875,0,0,0,0,0,0,0,0,0,0,0,0,undefined,0,42,17.598250000000007,-83,-42.606729999999516,999,1.8,Off,1,1,0,0,-1,false,false
19:36:24 GMT-0500 Sat Mar 12 2022,false,42,17.598454,-83,-42.606817,342.875,0,0,0,0,0,0,0,0,0,0,0,0,undefined,0,42,17.598259999999755,-83,-42.60673999999926,999,1.15,Off,1,1,0,0,-1,false,false
19:36:24 GMT-0500 Sat Mar 12 2022,false,42,17.598454,-83,-42.606817,342.875,0,0,0,0,0,0,0,0,0,0,0,0,undefined,0,42,17.598259999999755,-83,-42.60673999999926,999,1.5,Off,1,1,0,0,-1,false,false
19:36:25 GMT-0500 Sat Mar 12 2022,false,42,17.598454,-83,-42.606817,342.875,0,0,0,0,0,0,0,0,0,0,0,0,undefined,0,42,17.598259999999755,-83,-42.60673999999926,999,1.6166666666666667,Off,1,1,0,0,-1,false,false
19:36:25 GMT-0500 Sat Mar 12 2022,false,42,17.598454,-83,-42.606817,342.875,0,0,0,0,0,0,0,0,0,0,0,0,undefined,0,42,17.598259999999755,-83,-42.60673999999926,999,0.5666666666666667,Off,1,1,0,0,-1,false,false
19:36:26 GMT-0500 Sat Mar 12 2022,false,42,17.598454,-83,-42.606817,342.875,0,0,0,0,0,0,0,0,0,0,0,0,undefined,0,42,17.59827000000041,-83,-42.60675000000083,999,1.7666666666666666,Off,1,1,0,0,-1,false,false
19:36:26 GMT-0500 Sat Mar 12 2022,false,42,17.598454,-83,-42.606817,342.875,0,0,0,0,0,0,0,0,0,0,0,0,undefined,0,42,17.59828000000016,-83,-42.60675000000083,999,2,Off,1,1,0,0,-1,false,false
19:36:27 GMT-0500 Sat Mar 12 2022,false,42,17.598454,-83,-42.606817,342.875,0,0,0,0,0,0,0,0,0,0,0,0,undefined,0,42,17.59828000000016,-83,-42.60675000000083,999,0.8,Off,1,1,0,0,-1,false,false
19:36:27 GMT-0500 Sat Mar 12 2022,false,42,17.598454,-83,-42.606817,342.875,0,0,0,0,0,0,0,0,0,0,0,0,undefined,0,42,17.59828000000016,-83,-42.60676000000058,999,1.2,Off,1,1,0,0,-1,false,false
19:36:28 GMT-0500 Sat Mar 12 2022,false,42,17.598454,-83,-42.606817,342.875,0,0,0,0,0,0,0,0,0,0,0,0,undefined,0,42,17.59828000000016,-83,-42.60675000000083,999,3.25,Off,1,1,0,0,-1,false,false
19:36:28 GMT-0500 Sat Mar 12 2022,false,42,17.598454,-83,-42.606817,342.875,0,0,0,0,0,0,0,0,0,0,0,0,undefined,0,42,17.59827000000041,-83,-42.60673999999926,999,1.4833333333333334,Off,1,1,0,0,-1,false,false
19:36:29 GMT-0500 Sat Mar 12 2022,false,42,17.598454,-83,-42.606817,342.875,0,0,0,0,0,0,0,0,0,0,0,0,undefined,0,42,17.59827000000041,-83,-42.60673999999926,999,2.2666666666666666,Off,1,1,0,0,-1,false,false
19:36:29 GMT-0500 Sat Mar 12 2022,false,42,17.598454,-83,-42.606817,342.875,0,0,0,0,0,0,0,0,0,0,0,0,undefined,0,42,17.59827000000041,-83,-42.60673999999926,999,1.3833333333333333,Off,1,1,0,0,-1,false,false
19:36:30 GMT-0500 Sat Mar 12 2022,false,42,17.598454,-83,-42.606817,342.875,0,0,0,0,0,0,0,0,0,0,0,0,undefined,0,42,17.59827000000041,-83,-42.60673999999926,999,0.7833333333333333,Off,1,1,0,0,-1,false,false
19:36:30 GMT-0500 Sat Mar 12 2022,false,42,17.598454,-83,-42.606817,342.875,0,0,0,0,0,0,0,0,0,0,0,0,undefined,0,42,17.59828000000016,-83,-42.60673999999926,999,0.9333333333333333,Off,1,1,0,0,-1,false,false
19:36:31 GMT-0500 Sat Mar 12 2022,false,42,17.598454,-83,-42.606817,342.875,0,0,0,0,0,0,0,0,0,0,0,0,undefined,0,42,17.59828000000016,-83,-42.60675000000083,999,0.7833333333333333,Off,1,1,0,0,-1,false,false
19:36:31 GMT-0500 Sat Mar 12 2022,false,42,17.598454,-83,-42.606817,342.875,0,0,0,0,0,0,0,0,0,0,0,0,undefined,0,42,17.59828000000016,-83,-42.60675000000083,999,1.2166666666666666,Off,1,1,0,0,-1,false,false
19:36:32 GMT-0500 Sat Mar 12 2022,false,42,17.598454,-83,-42.606817,342.875,0,0,0,0,0,0,0,0,0,0,0,0,undefined,0,42,17.59828000000016,-83,-42.60673999999926,999,1.4666666666666666,Off,1,1,0,0,-1,false,false
19:36:32 GMT-0500 Sat Mar 12 2022,false,42,17.598454,-83,-42.606817,342.875,0,0,0,0,0,0,0,0,0,0,0,0,undefined,0,42,17.59828000000016,-83,-42.60673999999926,999,1.8833333333333333,Off,1,1,0,0,-1,false,false
19:36:33 GMT-0500 Sat Mar 12 2022,false,42,17.598454,-83,-42.606817,342.875,0,0,0,0,0,0,0,0,0,0,0,0,undefined,0,42,17.59828000000016,-83,-42.60673999999926,999,1.05,Off,1,1,0,0,-1,false,false
19:36:33 GMT-0500 Sat Mar 12 2022,false,42,17.598454,-83,-42.606817,342.875,0,0,0,0,0,0,0,0,0,0,0,0,undefined,0,42,17.59828000000016,-83,-42.60673999999926,999,1.5,Off,1,1,0,0,-1,false,false
19:36:34 GMT-0500 Sat Mar 12 2022,false,42,17.598454,-83,-42.606817,342.875,0,0,0,0,0,0,0,0,0,0,0,0,undefined,0,42,17.59828000000016,-83,-42.60673999999926,999,1.5,Off,1,1,0,0,-1,false,false
19:36:34 GMT-0500 Sat Mar 12 2022,false,42,17.598454,-83,-42.606817,342.875,0,0,0,0,0,0,0,0,0,0,0,0,undefined,0,42,17.59828000000016,-83,-42.60673999999926,999,1.5,Off,1,1,0,0,-1,false,false
19:36:35 GMT-0500 Sat Mar 12 2022,false,42,17.598454,-83,-42.606817,342.875,0,0,0,0,0,0,0,0,0,0,0,0,undefined,0,42,17.59828000000016,-83,-42.60673999999926,999,1.5,Off,1,1,0,0,-1,false,false
19:36:35 GMT-0500 Sat Mar 12 2022,false,42,17.598454,-83,-42.606817,342.875,0,0,0,0,0,0,0,0,0,0,0,0,undefined,0,42,17.59828000000016,-83,-42.60673999999926,999,1.5,Off,1,1,0,0,-1,false,false
19:36:36 GMT-0500 Sat Mar 12 2022,false,42,17.598454,-83,-42.606817,342.875,0,0,0,0,0,0,0,0,0,0,0,0,undefined,0,42,17.59828000000016,-83,-42.60673999999926,999,1.5,Off,1,1,0,0,-1,false,false
19:36:36 GMT-0500 Sat Mar 12 2022,false,42,17.598454,-83,-42.606817,342.875,0,0,0,0,0,0,0,0,0,0,0,0,undefined,0,42,17.59828000000016,-83,-42.60673999999926,999,1.5,Off,1,1,0,0,-1,false,false
19:36:37 GMT-0500 Sat Mar 12 2022,false,42,17.598454,-83,-42.606817,342.875,0,0,0,0,0,0,0,0,0,0,0,0,undefined,0,42,17.59828000000016,-83,-42.60673999999926,999,1.5,Off,1,1,0,0,-1,false,false
19:36:37 GMT-0500 Sat Mar 12 2022,false,42,17.598454,-83,-42.606817,342.875,0,0,0,0,0,0,0,0,0,0,0,0,undefined,0,42,17.59828000000016,-83,-42.60673999999926,999,1.5,Off,1,1,0,0,-1,false,false
19:36:38 GMT-0500 Sat Mar 12 2022,false,42,17.598454,-83,-42.606817,342.875,0,0,0,0,0,0,0,0,0,0,0,0,undefined,0,42,17.59828000000016,-83,-42.60673999999926,999,1.5,Off,1,1,0,0,-1,false,false
19:36:38 GMT-0500 Sat Mar 12 2022,false,42,17.598454,-83,-42.606817,342.875,0,0,0,0,0,0,0,0,0,0,0,0,undefined,0,42,17.59828000000016,-83,-42.60673999999926,999,1.5,Off,1,1,0,0,-1,false,false
19:36:39 GMT-0500 Sat Mar 12 2022,false,42,17.598454,-83,-42.606817,342.875,0,0,0,0,0,0,0,0,0,0,0,0,undefined,0,42,17.59828000000016,-83,-42.60673999999926,999,1.5,Off,1,1,0,0,-1,false,false
19:36:39 GMT-0500 Sat Mar 12 2022,false,42,17.598454,-83,-42.606817,342.875,0,0,0,0,0,0,0,0,0,0,0,0,undefined,0,42,17.59828000000016,-83,-42.60673999999926,999,1.5,Off,1,1,0,0,-1,false,false
19:36:40 GMT-0500 Sat Mar 12 2022,false,42,17.598454,-83,-42.606817,342.875,0,0,0,0,0,0,0,0,0,0,0,0,undefined,0,42,17.598259999999755,-83,-42.60673999999926,999,0.45,Off,1,1,0,0,-1,false,false
19:36:40 GMT-0500 Sat Mar 12 2022,false,42,17.598454,-83,-42.606817,342.875,0,0,0,0,0,0,0,0,0,0,0,0,undefined,0,42,17.598250000000007,-83,-42.60673999999926,999,0.4666666666666667,Off,1,1,0,0,-1,false,false
19:36:41 GMT-0500 Sat Mar 12 2022,false,42,17.598454,-83,-42.606817,342.875,0,0,0,0,0,0,0,0,0,0,0,0,undefined,0,42,17.59824000000026,-83,-42.60675000000083,999,1.6833333333333333,Off,1,1,0,0,-1,false,false
19:36:41 GMT-0500 Sat Mar 12 2022,false,42,17.598454,-83,-42.606817,342.875,0,0,0,0,0,0,0,0,0,0,0,0,undefined,0,42,17.598229999999603,-83,-42.60675000000083,999,0.95,Off,1,1,0,0,-1,false,false
19:36:42 GMT-0500 Sat Mar 12 2022,false,42,17.598454,-83,-42.606817,342.875,0,0,0,0,0,0,0,0,0,0,0,0,undefined,0,42,17.598229999999603,-83,-42.60675000000083,999,0.8,Off,1,1,0,0,-1,false,false
19:36:42 GMT-0500 Sat Mar 12 2022,false,42,17.598454,-83,-42.606817,342.875,0,0,0,0,0,0,0,0,0,0,0,0,undefined,0,42,17.598229999999603,-83,-42.60676000000058,999,0.65,Off,1,1,0,0,-1,false,false
19:36:43 GMT-0500 Sat Mar 12 2022,false,42,17.598454,-83,-42.606817,342.875,0,0,0,0,0,0,0,0,0,0,0,0,undefined,0,42,17.598219999999856,-83,-42.60676000000058,999,2.5,Off,1,1,0,0,-1,false,false
19:36:43 GMT-0500 Sat Mar 12 2022,false,42,17.598454,-83,-42.606817,342.875,0,0,0,0,0,0,0,0,0,0,0,0,undefined,0,42,17.598219999999856,-83,-42.60676000000058,999,0.2,Off,1,1,0,0,-1,false,false
19:36:44 GMT-0500 Sat Mar 12 2022,false,42,17.598217,-83,-42.60676,342.875,0,0,0,0,0,0,0,0,0,0,0,0,undefined,0,42,17.59821000000011,-83,-42.60676000000058,999,0.08333333333333333,Off,1,1,0,0,-1,false,false
19:36:44 GMT-0500 Sat Mar 12 2022,false,42,17.598215,-83,-42.60676,342.875,0,0,0,0,0,0,0,0,0,0,0,0,undefined,0,42,17.59820000000036,-83,-42.60675000000083,999,1.15,Off,1,1,0,0,-1,false,false
19:36:45 GMT-0500 Sat Mar 12 2022,false,42,17.59821,-83,-42.606757,342.875,0,0,0,0,0,0,0,0,0,0,0,0,undefined,0,42,17.598189999999704,-83,-42.60675000000083,999,1.3666666666666667,Off,1,1,0,0,-1,false,false
19:36:45 GMT-0500 Sat Mar 12 2022,false,42,17.598205,-83,-42.606755,342.875,0,0,0,0,0,0,0,0,0,0,0,0,undefined,0,42,17.598189999999704,-83,-42.60675000000083,999,1.85,Off,1,1,0,0,-1,false,false
19:36:46 GMT-0500 Sat Mar 12 2022,false,42,17.598202,-83,-42.606753,342.875,0,0,0,0,0,0,0,0,0,0,0,0,undefined,0,42,17.598179999999957,-83,-42.60673999999926,999,0.9333333333333333,Off,1,1,0,0,-1,false,false
19:36:46 GMT-0500 Sat Mar 12 2022,false,42,17.598196,-83,-42.606751,342.875,0,0,0,0,0,0,0,0,0,0,0,0,undefined,0,42,17.59817000000021,-83,-42.606729999999516,999,2.183333333333333,Off,1,1,0,0,-1,false,false
19:36:47 GMT-0500 Sat Mar 12 2022,false,42,17.598192,-83,-42.606748,342.875,0,0,0,0,0,0,0,0,0,0,0,0,undefined,0,42,17.598159999999552,-83,-42.606729999999516,999,0.6,Off,1,1,0,0,-1,false,false
19:36:47 GMT-0500 Sat Mar 12 2022,false,42,17.598188,-83,-42.606746,342.875,0,0,0,0,0,0,0,0,0,0,0,0,undefined,0,42,17.598149999999805,-83,-42.606729999999516,999,0.1,Off,1,1,0,0,-1,false,false
19:36:48 GMT-0500 Sat Mar 12 2022,false,42,17.598184,-83,-42.606744,342.875,0,0,0,0,0,0,0,0,0,0,0,0,undefined,0,42,17.598149999999805,-83,-42.60671999999977,999,1.8833333333333333,Off,1,1,0,0,-1,false,false
19:36:48 GMT-0500 Sat Mar 12 2022,false,42,17.59818,-83,-42.606742,342.875,0,0,0,0,0,0,0,0,0,0,0,0,undefined,0,42,17.598140000000058,-83,-42.60671999999977,999,1.95,Off,1,1,0,0,-1,false,false
19:36:49 GMT-0500 Sat Mar 12 2022,false,42,17.598176,-83,-42.60674,342.875,0,0,0,0,0,0,0,0,0,0,0,0,undefined,0,42,17.598140000000058,-83,-42.60671999999977,999,2.3333333333333335,Off,1,1,0,0,-1,false,false
19:36:49 GMT-0500 Sat Mar 12 2022,false,42,17.598174,-83,-42.606738,342.875,0,0,0,0,0,0,0,0,0,0,0,0,undefined,0,42,17.598140000000058,-83,-42.60671000000002,999,0.16666666666666666,Off,1,1,0,0,-1,false,false
19:36:50 GMT-0500 Sat Mar 12 2022,false,42,17.598171,-83,-42.606736,342.875,0,0,0,0,0,0,0,0,0,0,0,0,undefined,0,42,17.598140000000058,-83,-42.60671000000002,999,2.35,Off,1,1,0,0,-1,false,false
19:36:50 GMT-0500 Sat Mar 12 2022,false,42,17.598171,-83,-42.606735,341.5625,0,0,0,0,0,0,0,0,0,0,0,0,undefined,0,42,17.598140000000058,-83,-42.60671000000002,999,2.45,Off,1,1,0,0,-1,false,false
19:36:51 GMT-0500 Sat Mar 12 2022,false,42,17.598175,-83,-42.606739,323.6875,0,0,0,0,0,0,0,0,0,0,0,0,undefined,0,42,17.598140000000058,-83,-42.60671000000002,999,1.45,Off,1,1,0,0,-1,false,false
19:36:51 GMT-0500 Sat Mar 12 2022,false,42,17.598178,-83,-42.606736,297.0625,0,0,0,0,0,0,0,0,0,0,0,0,undefined,0,42,17.598189999999704,-83,-42.60678000000007,296.63,21.866666666666667,Off,1,1,0,0,-1,false,false
19:36:52 GMT-0500 Sat Mar 12 2022,false,42,17.598181,-83,-42.606746,293.6875,0,0,0,0,0,0,0,0,0,0,0,0,undefined,0,42,17.59821000000011,-83,-42.606809999999314,999,4.716666666666667,Off,1,1,0,0,-1,false,false
19:36:52 GMT-0500 Sat Mar 12 2022,false,42,17.598182,-83,-42.606728,261.5,0,0,0,0,0,0,0,0,0,0,0,0,undefined,0,42,17.598219999999856,-83,-42.60685000000012,999,8.05,Off,1,1,0,0,-1,false,false
19:36:53 GMT-0500 Sat Mar 12 2022,false,42,17.598167,-83,-42.60677,226.6875,0,0,0,0,0,0,0,0,0,0,0,0,undefined,0,42,17.598229999999603,-83,-42.60695999999916,262.98,18.033333333333335,Off,1,1,0,0,-1,false,false
19:36:53 GMT-0500 Sat Mar 12 2022,false,42,17.598199,-83,-42.60676,204,0,0,0,0,0,0,0,0,0,0,0,0,undefined,0,42,17.598140000000058,-83,-42.60704000000078,205.49,31.116666666666667,Off,1,1,0,0,-1,false,false
19:36:54 GMT-0500 Sat Mar 12 2022,false,42,17.598198,-83,-42.606772,218.5625,0,0,0,0,0,0,0,0,0,0,0,0,undefined,0,42,17.59810000000016,-83,-42.60705000000053,17.28,11.566666666666666,Off,1,1,0,0,-1,false,false
19:36:54 GMT-0500 Sat Mar 12 2022,false,42,17.598204,-83,-42.606772,219.0625,0,0,0,0,0,0,0,0,0,0,0,0,undefined,0,42,17.598109999999906,-83,-42.60702999999921,58.14,15.95,Off,1,1,0,0,-1,false,false
19:36:55 GMT-0500 Sat Mar 12 2022,false,42,17.598205,-83,-42.606778,218.5,0,0,0,0,0,0,0,0,0,0,0,0,undefined,0,42,17.598119999999653,-83,-42.607019999999466,999,2.85,Off,1,1,0,0,-1,false,false
19:36:55 GMT-0500 Sat Mar 12 2022,false,42,17.598209,-83,-42.60678,233.1875,0,0,0,0,0,0,0,0,0,0,0,0,undefined,0,42,17.598179999999957,-83,-42.606980000000476,999,5.45,Off,1,1,0,0,-1,false,false
19:36:56 GMT-0500 Sat Mar 12 2022,false,42,17.598211,-83,-42.606778,267.75,0,0,0,0,0,0,0,0,0,0,0,0,undefined,0,42,17.598189999999704,-83,-42.60695999999916,84.48,11.283333333333333,Off,1,1,0,0,-1,false,false
19:36:56 GMT-0500 Sat Mar 12 2022,false,42,17.598222,-83,-42.606816,303.5625,0,0,0,0,0,0,0,0,0,0,0,0,undefined,0,42,17.59821000000011,-83,-42.60685999999987,93.9,17.116666666666667,Off,1,1,0,0,-1,false,false
19:36:57 GMT-0500 Sat Mar 12 2022,false,42,17.598224,-83,-42.60682,305.6875,0,0,0,0,0,0,0,0,0,0,0,0,undefined,0,42,17.598159999999552,-83,-42.60671999999977,134.13,24.1,Off,1,1,0,0,-1,false,false
19:36:57 GMT-0500 Sat Mar 12 2022,false,42,17.598227,-83,-42.606828,305.625,0,0,0,0,0,0,0,0,0,0,0,0,undefined,0,42,17.598140000000058,-83,-42.60668000000078,999,7.033333333333333,Off,1,1,0,0,-1,false,false
19:36:58 GMT-0500 Sat Mar 12 2022,false,42,17.598215,-83,-42.606805,305.8125,0,0,0,0,0,0,0,0,0,0,0,0,undefined,0,42,17.598070000000007,-83,-42.606509999999616,114.48,45.416666666666664,Off,1,1,0,0,-1,false,false
19:36:58 GMT-0500 Sat Mar 12 2022,false,42,17.598218,-83,-42.606807,306.0625,0,0,0,0,0,0,0,0,0,0,0,0,undefined,0,42,17.597969999999805,-83,-42.60623999999916,118.84,50.31666666666667,Off,1,1,0,0,-1,false,false
19:36:59 GMT-0500 Sat Mar 12 2022,false,42,17.598207,-83,-42.606782,306.3125,0,0,0,0,0,0,0,0,0,0,0,0,undefined,0,42,17.59788000000026,-83,-42.60594999999921,121.02,50.86666666666667,Off,1,1,0,0,-1,false,false
19:36:59 GMT-0500 Sat Mar 12 2022,false,42,17.598205,-83,-42.606768,305.875,0,0,0,0,0,0,0,0,0,0,0,0,undefined,0,42,17.59781000000021,-83,-42.60572999999931,123.3,50.983333333333334,Off,1,1,0,0,-1,false,false
19:37:00 GMT-0500 Sat Mar 12 2022,false,42,17.598193,-83,-42.606734,306.4375,0,0,0,0,0,0,0,0,0,0,0,0,undefined,0,42,17.59770000000026,-83,-42.605390000000625,117.88,49.93333333333333,Off,1,1,0,0,-1,false,false
19:37:00 GMT-0500 Sat Mar 12 2022,false,42,17.598167,-83,-42.606673,306.8125,0,0,0,0,0,0,0,0,0,0,0,0,undefined,0,42,17.59761999999955,-83,-42.60515999999916,116.79,49.21666666666667,Off,1,1,0,0,-1,false,false
19:37:01 GMT-0500 Sat Mar 12 2022,false,42,17.598131,-83,-42.606589,306.75,0,0,0,0,0,0,0,0,0,0,0,0,undefined,0,42,17.59752000000026,-83,-42.604880000000776,121.37,47.2,Off,1,1,0,0,-1,false,false
19:37:01 GMT-0500 Sat Mar 12 2022,false,42,17.598101,-83,-42.606517,307.375,0,0,0,0,0,0,0,0,0,0,0,0,undefined,0,42,17.597420000000056,-83,-42.604590000000826,110.85,51.18333333333333,Off,1,1,0,0,-1,false,false
19:37:02 GMT-0500 Sat Mar 12 2022,false,42,17.598095,-83,-42.606489,307.5625,0,0,0,0,0,0,0,0,0,0,0,0,undefined,0,42,17.597319999999854,-83,-42.60428999999931,110.47,59.15,Off,1,1,0,0,-1,false,false
19:37:02 GMT-0500 Sat Mar 12 2022,false,42,17.598067,-83,-42.606414,308,0,0,0,0,0,0,0,0,0,0,0,0,undefined,0,42,17.597219999999652,-83,-42.60400999999911,114.7,56.9,Off,1,1,0,0,-1,false,false
19:37:03 GMT-0500 Sat Mar 12 2022,false,42,17.598065,-83,-42.606386,308.5,0,0,0,0,0,0,0,0,0,0,0,0,undefined,0,42,17.597130000000107,-83,-42.603800000000774,121.72,47.75,Off,1,1,0,0,-1,false,false
19:37:03 GMT-0500 Sat Mar 12 2022,false,42,17.598069,-83,-42.606365,308.625,0,0,0,0,0,0,0,0,0,0,0,0,undefined,0,42,17.59701000000041,-83,-42.60347999999976,124.24,52.31666666666667,Off,1,1,0,0,-1,false,false
19:37:04 GMT-0500 Sat Mar 12 2022,false,42,17.598042,-83,-42.606291,308.8125,0,0,0,0,0,0,0,0,0,0,0,0,undefined,0,42,17.596929999999702,-83,-42.603259999999864,111.45,54.916666666666664,Off,1,1,0,0,-1,false,false
19:37:04 GMT-0500 Sat Mar 12 2022,false,42,17.598017,-83,-42.606225,308.875,0,0,0,0,0,0,0,0,0,0,0,0,undefined,0,42,17.596819999999752,-83,-42.60298999999941,120.46,52.85,Off,1,1,0,0,-1,false,false
19:37:05 GMT-0500 Sat Mar 12 2022,false,42,17.597984,-83,-42.606139,303.0625,0,0,0,0,0,0,0,0,0,0,0,0,undefined,0,42,17.59671999999955,-83,-42.60273000000052,120.96,42.7,Off,1,1,0,0,-1,false,false
19:37:05 GMT-0500 Sat Mar 12 2022,false,42,17.597946,-83,-42.606038,283.625,0,0,0,0,0,0,0,0,0,0,0,0,undefined,0,42,17.59667999999965,-83,-42.602639999999155,999,4.166666666666667,Off,1,1,0,0,-1,false,false
19:37:06 GMT-0500 Sat Mar 12 2022,false,42,17.597918,-83,-42.605934,268.375,0,0,0,0,0,0,0,0,0,0,0,0,undefined,0,42,17.596690000000308,-83,-42.602679999999964,999,4.5,Off,1,1,0,0,-1,false,false
19:37:06 GMT-0500 Sat Mar 12 2022,false,42,17.597896,-83,-42.605872,268.6875,0,0,0,0,0,0,0,0,0,0,0,0,undefined,0,42,17.596700000000055,-83,-42.60276999999951,999,7.866666666666666,Off,1,1,0,0,-1,false,false
19:37:07 GMT-0500 Sat Mar 12 2022,false,42,17.597869,-83,-42.605801,268.8125,0,0,0,0,0,0,0,0,0,0,0,0,undefined,0,42,17.596690000000308,-83,-42.60283999999956,999,3.933333333333333,Off,1,1,0,0,-1,false,false
19:37:07 GMT-0500 Sat Mar 12 2022,false,42,17.597843,-83,-42.605736,268.8125,0,0,0,0,0,0,0,0,0,0,0,0,undefined,0,42,17.596700000000055,-83,-42.60284999999931,999,5.25,Off,1,1,0,0,-1,false,false
19:37:08 GMT-0500 Sat Mar 12 2022,false,42,17.597819,-83,-42.605675,268.875,0,0,0,0,0,0,0,0,0,0,0,0,undefined,0,42,17.596700000000055,-83,-42.60284999999931,999,1.6333333333333333,Off,1,1,0,0,-1,false,false
19:37:08 GMT-0500 Sat Mar 12 2022,false,42,17.597795,-83,-42.605615,268.875,0,0,0,0,0,0,0,0,0,0,0,0,undefined,0,42,17.596700000000055,-83,-42.60284999999931,999,1.7833333333333334,Off,1,1,0,0,-1,false,false
19:37:09 GMT-0500 Sat Mar 12 2022,false,42,17.597777,-83,-42.60557,268.875,0,0,0,0,0,0,0,0,0,0,0,0,undefined,0,42,17.596700000000055,-83,-42.602860000000874,999,1.95,Off,1,1,0,0,-1,false,false
19:37:09 GMT-0500 Sat Mar 12 2022,false,42,17.597755,-83,-42.605515,268.875,0,0,0,0,0,0,0,0,0,0,0,0,undefined,0,42,17.596700000000055,-83,-42.602860000000874,999,1,Off,1,1,0,0,-1,false,false
19:37:10 GMT-0500 Sat Mar 12 2022,false,42,17.597734,-83,-42.605462,268.875,0,0,0,0,0,0,0,0,0,0,0,0,undefined,0,42,17.596709999999803,-83,-42.602860000000874,999,1.6333333333333333,Off,1,1,0,0,-1,false,false
19:37:10 GMT-0500 Sat Mar 12 2022,false,42,17.597714,-83,-42.605411,268.875,0,0,0,0,0,0,0,0,0,0,0,0,undefined,0,42,17.596709999999803,-83,-42.602860000000874,999,1.25,Off,1,1,0,0,-1,false,false
19:37:11 GMT-0500 Sat Mar 12 2022,false,42,17.597699,-83,-42.605371,268.875,0,0,0,0,0,0,0,0,0,0,0,0,undefined,0,42,17.59671999999955,-83,-42.602860000000874,999,2.6666666666666665,Off,1,1,0,0,-1,false,false
19:37:11 GMT-0500 Sat Mar 12 2022,false,42,17.59768,-83,-42.605324,268.875,0,0,0,0,0,0,0,0,0,0,0,0,undefined,0,42,17.59671999999955,-83,-42.60287000000062,999,1.8,Off,1,1,0,0,-1,false,false
19:37:12 GMT-0500 Sat Mar 12 2022,false,42,17.597662,-83,-42.605278,268.875,0,0,0,0,0,0,0,0,0,0,0,0,undefined,0,42,17.59671999999955,-83,-42.60287000000062,999,1.4333333333333333,Off,1,1,0,0,-1,false,false
19:37:12 GMT-0500 Sat Mar 12 2022,false,42,17.597645,-83,-42.605233,268.875,0,0,0,0,0,0,0,0,0,0,0,0,undefined,0,42,17.596730000000207,-83,-42.60287000000062,999,0.8333333333333334,Off,1,1,0,0,-1,false,false
19:37:13 GMT-0500 Sat Mar 12 2022,false,42,17.597629,-83,-42.605191,268.875,0,0,0,0,0,0,0,0,0,0,0,0,undefined,0,42,17.596739999999954,-83,-42.60287000000062,999,0.8666666666666667,Off,1,1,0,0,-1,false,false
19:37:13 GMT-0500 Sat Mar 12 2022,false,42,17.597616,-83,-42.605157,268.875,0,0,0,0,0,0,0,0,0,0,0,0,undefined,0,42,17.5967499999997,-83,-42.60287000000062,999,0.8333333333333334,Off,1,1,0,0,-1,false,false
19:37:14 GMT-0500 Sat Mar 12 2022,false,42,17.597601,-83,-42.605117,268.875,0,0,0,0,0,0,0,0,0,0,0,0,undefined,0,42,17.5967499999997,-83,-42.60287000000062,999,1.55,Off,1,1,0,0,-1,false,false
19:37:14 GMT-0500 Sat Mar 12 2022,true,42,17.597586,-83,-42.605065,272.75,0,0,0,0,0,0,0,0,0,0,0,0,undefined,0,42,17.59676000000036,-83,-42.60287000000062,999,1.05,Turn,0,1,0,0.5,-1,false,false
19:37:15 GMT-0500 Sat Mar 12 2022,true,42,17.597532,-83,-42.604899,284.5625,0.5503659584130837,0,0,0,0,0,0,0,0,0,0,0,undefined,0,42,17.59676000000036,-83,-42.60287000000062,999,0.5833333333333334,Drive,0,1,1,0.5,-1,false,false
19:37:15 GMT-0500 Sat Mar 12 2022,true,42,17.597444,-83,-42.604561,287.75,1.1823487160954316,0,0,0,0,0,0,0,0,0,0,0,undefined,0,42,17.59676000000036,-83,-42.60287000000062,999,2.05,Drive,0,1,1,0.5,-1,false,false
19:37:16 GMT-0500 Sat Mar 12 2022,true,42,17.597392,-83,-42.604376,290.9375,0.38994926558355386,0,0,0,0,0,0,0,0,0,0,0,undefined,0,42,17.5967499999997,-83,-42.60283999999956,114.57,14.516666666666667,Drive,0,1,1,0.5,-1,false,false
19:37:16 GMT-0500 Sat Mar 12 2022,true,42,17.597398,-83,-42.604435,295.0625,0.8104588945682059,0,0,0,0,0,0,0,0,0,0,0,undefined,0,42,17.5967499999997,-83,-42.602969999999914,265.35,29.733333333333334,Drive,0,1,1,0.5,-1,false,false
19:37:17 GMT-0500 Sat Mar 12 2022,true,42,17.597361,-83,-42.60443,298.5625,0.07919655383088064,0,0,0,0,0,0,0,0,0,0,0,undefined,0,42,17.59676000000036,-83,-42.60320999999931,270.99,37.7,Drive,0,1,1,0.46320823361663277,-1,false,false
19:37:17 GMT-0500 Sat Mar 12 2022,true,42,17.597236,-83,-42.604238,301.3125,0.14878034946231886,0,0,0,0,0,0,0,0,0,0,0,undefined,0,42,17.596779999999853,-83,-42.603470000000016,280.34,41.18333333333333,Drive,0,1,1,0.29927378808688054,-1,false,false
19:37:18 GMT-0500 Sat Mar 12 2022,true,42,17.597159,-83,-42.604189,302.375,0.21994147271128495,0,0,0,0,0,0,0,0,0,0,0,undefined,0,42,17.596819999999752,-83,-42.60369999999966,283.85,37.96666666666667,Drive,0,1,1,0.2120527997333811,-1,false,false
19:37:18 GMT-0500 Sat Mar 12 2022,true,42,17.597146,-83,-42.604279,302.5625,0.8927166652386487,0,0,0,0,0,0,0,0,0,0,0,undefined,0,42,17.596840000000157,-83,-42.60388000000057,277.82,38.4,Drive,0,1,1,0.19275539567382927,-1,false,false
19:37:19 GMT-0500 Sat Mar 12 2022,true,42,17.597117,-83,-42.604375,303.5,0.2679908989072622,0,0,0,0,0,0,0,0,0,0,0,undefined,0,42,17.596889999999803,-83,-42.60410000000047,285.03,35.25,Drive,0,1,1,0.16572399221757,-1,false,false
19:37:19 GMT-0500 Sat Mar 12 2022,true,42,17.597038,-83,-42.604372,303.6875,0.24184154364582697,0,0,0,0,0,0,0,0,0,0,0,undefined,0,42,17.596959999999854,-83,-42.60436999999911,286.91,45.61666666666667,Drive,0,1,1,0.21492077151757122,-1,false,false
19:37:20 GMT-0500 Sat Mar 12 2022,true,42,17.596982,-83,-42.604417,304.8125,0.3244760812963164,0,0,0,0,0,0,0,0,0,0,0,undefined,0,42,17.597029999999904,-83,-42.60463999999956,290.38,42.21666666666667,Drive,0,1,1,0.24241341485120332,-1,false,false
19:37:20 GMT-0500 Sat Mar 12 2022,true,42,17.596932,-83,-42.604473,306.125,0.48629300455824176,0,0,0,0,0,0,0,0,0,0,0,undefined,0,42,17.597109999999702,-83,-42.604919999999765,288.14,55.4,Drive,0,1,1,0.2720236942973191,-1,false,false
19:37:21 GMT-0500 Sat Mar 12 2022,true,42,17.596868,-83,-42.604504,307.1875,0.8901928714454941,0,0,0,0,0,0,0,0,0,0,0,undefined,0,42,17.59719000000041,-83,-42.60518000000047,290.91,47.4,Drive,0,1,1,0.33091724902798936,-1,false,false
19:37:21 GMT-0500 Sat Mar 12 2022,true,42,17.596815,-83,-42.604523,309,1.0720765295617962,0,0,0,0,0,0,0,0,0,0,0,undefined,0,42,17.597270000000208,-83,-42.605429999999615,292.73,48.43333333333333,Drive,0,1,1,0.33619168777420394,-1,false,false
19:37:22 GMT-0500 Sat Mar 12 2022,true,42,17.596736,-83,-42.604531,310.75,1.4823137983876769,0,0,0,0,0,0,0,0,0,0,0,undefined,0,42,17.5973299999996,-83,-42.605649999999514,293.26,53.21666666666667,Drive,0,1,1,0.34632707570524185,-1,false,false
19:37:22 GMT-0500 Sat Mar 12 2022,true,42,17.596721,-83,-42.604647,312.625,1.1568788815786415,0,0,0,0,0,0,0,0,0,0,0,undefined,0,42,17.597420000000056,-83,-42.605900000000474,301.91,42.75,Drive,0,1,1,0.35461462358696044,-1,false,false
19:37:23 GMT-0500 Sat Mar 12 2022,true,42,17.596738,-83,-42.604817,314.1875,1.1914864212570473,0,0,0,0,0,0,0,0,0,0,0,undefined,0,42,17.597490000000107,-83,-42.60613000000012,294.69,36.666666666666664,Drive,0,1,1,0.40201666573595096,-1,false,false
19:37:23 GMT-0500 Sat Mar 12 2022,true,42,17.596789,-83,-42.605041,316.0625,0.6910985532272998,0,0,0,0,0,0,0,0,0,0,0,undefined,0,42,17.597579999999653,-83,-42.606369999999515,298.98,48.78333333333333,Drive,0,1,1,0.47595538121309944,-1,false,false
19:37:24 GMT-0500 Sat Mar 12 2022,true,42,17.596929,-83,-42.605382,319.625,0.14280726208522096,0,0,0,0,0,0,0,0,0,0,0,undefined,0,42,17.597670000000107,-83,-42.606589999999414,303.5,38.35,Drive,0,1,1,0.5,-1,false,false
19:37:24 GMT-0500 Sat Mar 12 2022,true,42,17.597153,-83,-42.605816,323.375,0.2705894209515087,0,0,0,0,0,0,0,0,0,0,0,undefined,0,42,17.59777000000031,-83,-42.60678999999982,309.62,44.1,Drive,0,1,1,0.5,-1,false,false
19:37:25 GMT-0500 Sat Mar 12 2022,true,42,17.597302,-83,-42.606124,326.5,0.2453203723144768,0,0,0,0,0,0,0,0,0,0,0,undefined,0,42,17.597850000000108,-83,-42.606949999999415,308.55,40.35,Drive,0,1,1,0.5,-1,false,false
19:37:25 GMT-0500 Sat Mar 12 2022,true,42,17.597464,-83,-42.606469,329.3125,0.5347297005965985,0,0,0,0,0,0,0,0,0,0,0,undefined,0,42,17.597939999999653,-83,-42.60712000000058,307.39,31.633333333333333,Drive,0,1,1,0.5,-1,false,false
19:37:26 GMT-0500 Sat Mar 12 2022,true,42,17.597844,-83,-42.607503,332.125,0,0,0,0,0,0,0,0,0,0,0,0,undefined,0,42,17.598049999999603,-83,-42.607309999999416,308.22,40.61666666666667,Done,1,1,0,0,-1,false,false
19:37:26 GMT-0500 Sat Mar 12 2022,true,42,17.597864,-83,-42.607492,331.5625,0,0,0,0,0,0,0,0,0,0,0,0,undefined,0,42,17.598159999999552,-83,-42.607490000000325,315.39,41.983333333333334,Done,1,1,0,0,-1,false,false
19:37:27 GMT-0500 Sat Mar 12 2022,true,42,17.597898,-83,-42.607501,331.5625,0,0,0,0,0,0,0,0,0,0,0,0,undefined,0,42,17.59828000000016,-83,-42.60764999999992,311.82,36.833333333333336,Done,1,1,0,0,-1,false,false
19:37:27 GMT-0500 Sat Mar 12 2022,true,42,17.597931,-83,-42.607519,331.5625,0,0,0,0,0,0,0,0,0,0,0,0,undefined,0,42,17.59838000000036,-83,-42.607780000000275,318.29,32.3,Done,1,1,0,0,-1,false,false
19:37:28 GMT-0500 Sat Mar 12 2022,false,42,17.597976,-83,-42.607546,331.5625,0,0,0,0,0,0,0,0,0,0,0,0,undefined,0,42,17.598409999999603,-83,-42.60779999999977,999,3.933333333333333,Done,1,1,0,0,-1,false,false
19:37:28 GMT-0500 Sat Mar 12 2022,false,42,17.598017,-83,-42.60757,331.5625,0,0,0,0,0,0,0,0,0,0,0,0,undefined,0,42,17.598409999999603,-83,-42.60779999999977,999,0.7833333333333333,Off,1,1,0,0,-1,false,false
