Timestamp,Auton Enabled,Odom Degrees Lat,Odom Minutes Lat,Odom Degrees Lon,Odom Minutes Lon,Odom bearing,Odom speed,Accel X,Accel Y,Accel Z,Gyro X,Gyro Y,Gyro Z,Mag X,Mag Y,Mag Z,Roll,Pitch,Yaw,IMU Bearing,GPS Degrees Lat,GPS Minutes Lat,GPS Degrees Lon,GPS Minutes Lon,GPS Bearing,GPS Speed,Nav State,Waypoints Completed,Total Waypoints,Forward/Back,Left/Right,Dampen,Kill,Restart
20:05:44 GMT-0500 Sat Mar 12 2022,false,42,17.60303,-83,-42.607303,153.9375,0,0,0,0,0,0,0,0,0,0,0,0,undefined,0,42,17.60229999999956,-83,-42.60659999999916,999,0.3,Off,0,1,0,0,-1,false,false
20:05:45 GMT-0500 Sat Mar 12 2022,false,42,17.603038,-83,-42.607304,153.9375,0,0,0,0,0,0,0,0,0,0,0,0,undefined,0,42,17.60229999999956,-83,-42.60659999999916,999,1.2,Off,0,1,0,0,-1,false,false
20:05:45 GMT-0500 Sat Mar 12 2022,false,42,17.603046,-83,-42.607304,153.9375,0,0,0,0,0,0,0,0,0,0,0,0,undefined,0,42,17.60228999999981,-83,-42.606589999999414,999,0.9833333333333333,Off,0,1,0,0,-1,false,false
20:05:46 GMT-0500 Sat Mar 12 2022,false,42,17.603054,-83,-42.607305,153.9375,0,0,0,0,0,0,0,0,0,0,0,0,undefined,0,42,17.60228999999981,-83,-42.60659999999916,999,1.9333333333333333,Off,0,1,0,0,-1,false,false
20:05:46 GMT-0500 Sat Mar 12 2022,false,42,17.60306,-83,-42.607306,153.9375,0,0,0,0,0,0,0,0,0,0,0,0,undefined,0,42,17.60228999999981,-83,-42.606589999999414,999,1.45,Off,0,1,0,0,-1,false,false
20:05:47 GMT-0500 Sat Mar 12 2022,false,42,17.603068,-83,-42.607307,153.9375,0,0,0,0,0,0,0,0,0,0,0,0,undefined,0,42,17.60228999999981,-83,-42.606589999999414,999,1.5333333333333334,Off,0,1,0,0,-1,false,false
20:05:47 GMT-0500 Sat Mar 12 2022,false,42,17.603076,-83,-42.607308,153.9375,0,0,0,0,0,0,0,0,0,0,0,0,undefined,0,42,17.60228999999981,-83,-42.606589999999414,999,1.7666666666666666,Off,0,1,0,0,-1,false,false
20:05:48 GMT-0500 Sat Mar 12 2022,false,42,17.603084,-83,-42.607309,153.9375,0,0,0,0,0,0,0,0,0,0,0,0,undefined,0,42,17.60228999999981,-83,-42.60657999999967,999,2.1,Off,0,1,0,0,-1,false,false
20:05:48 GMT-0500 Sat Mar 12 2022,false,42,17.603091,-83,-42.607311,153.9375,0,0,0,0,0,0,0,0,0,0,0,0,undefined,0,42,17.60228999999981,-83,-42.606589999999414,999,0.7166666666666667,Off,0,1,0,0,-1,false,false
20:05:49 GMT-0500 Sat Mar 12 2022,false,42,17.603099,-83,-42.607312,153.9375,0,0,0,0,0,0,0,0,0,0,0,0,undefined,0,42,17.60228999999981,-83,-42.606589999999414,999,0.6333333333333333,Off,0,1,0,0,-1,false,false
20:05:49 GMT-0500 Sat Mar 12 2022,false,42,17.603105,-83,-42.607313,153.9375,0,0,0,0,0,0,0,0,0,0,0,0,undefined,0,42,17.60229999999956,-83,-42.606589999999414,999,0.5833333333333334,Off,0,1,0,0,-1,false,false
20:05:50 GMT-0500 Sat Mar 12 2022,false,42,17.603113,-83,-42.607315,153.9375,0,0,0,0,0,0,0,0,0,0,0,0,undefined,0,42,17.60229999999956,-83,-42.606589999999414,999,1.6333333333333333,Off,0,1,0,0,-1,false,false
20:05:50 GMT-0500 Sat Mar 12 2022,false,42,17.603121,-83,-42.607316,153.9375,0,0,0,0,0,0,0,0,0,0,0,0,undefined,0,42,17.60229999999956,-83,-42.606589999999414,999,1.2666666666666666,Off,0,1,0,0,-1,false,false
20:05:51 GMT-0500 Sat Mar 12 2022,false,42,17.603129,-83,-42.607318,153.9375,0,0,0,0,0,0,0,0,0,0,0,0,undefined,0,42,17.60229999999956,-83,-42.60659999999916,999,2.783333333333333,Off,0,1,0,0,-1,false,false
20:05:51 GMT-0500 Sat Mar 12 2022,false,42,17.603137,-83,-42.60732,153.9375,0,0,0,0,0,0,0,0,0,0,0,0,undefined,0,42,17.602310000000216,-83,-42.60659999999916,999,0.6166666666666667,Off,0,1,0,0,-1,false,false
20:05:52 GMT-0500 Sat Mar 12 2022,false,42,17.603143,-83,-42.607321,153.9375,0,0,0,0,0,0,0,0,0,0,0,0,undefined,0,42,17.602310000000216,-83,-42.60659999999916,999,2.283333333333333,Off,0,1,0,0,-1,false,false
20:05:52 GMT-0500 Sat Mar 12 2022,false,42,17.603145,-83,-42.607319,154.8125,0,0,0,0,0,0,0,0,0,0,0,0,undefined,0,42,17.602319999999963,-83,-42.60659999999916,999,0.4,Off,0,1,0,0,-1,false,false
20:05:53 GMT-0500 Sat Mar 12 2022,false,42,17.603158,-83,-42.607324,154.8125,0,0,0,0,0,0,0,0,0,0,0,0,undefined,0,42,17.602319999999963,-83,-42.606589999999414,999,1.3833333333333333,Off,0,1,0,0,-1,false,false
20:05:53 GMT-0500 Sat Mar 12 2022,false,42,17.603166,-83,-42.607325,153.8125,0,0,0,0,0,0,0,0,0,0,0,0,undefined,0,42,17.602319999999963,-83,-42.606589999999414,999,1.2833333333333334,Off,0,1,0,0,-1,false,false
20:05:54 GMT-0500 Sat Mar 12 2022,false,42,17.60316,-83,-42.60732,149.4375,0,0,0,0,0,0,0,0,0,0,0,0,undefined,0,42,17.60232999999971,-83,-42.606589999999414,999,1.1333333333333333,Off,0,1,0,0,-1,false,false
20:05:54 GMT-0500 Sat Mar 12 2022,false,42,17.603172,-83,-42.607328,149.1875,0,0,0,0,0,0,0,0,0,0,0,0,undefined,0,42,17.60232999999971,-83,-42.606589999999414,999,3.1166666666666667,Off,0,1,0,0,-1,false,false
20:05:55 GMT-0500 Sat Mar 12 2022,false,42,17.60318,-83,-42.607339,60,0,0,0,0,0,0,0,0,0,0,0,0,undefined,0,42,17.60232999999971,-83,-42.606589999999414,999,0.31666666666666665,Off,0,1,0,0,-1,false,false
20:05:55 GMT-0500 Sat Mar 12 2022,false,42,17.603165,-83,-42.607267,213.5,0,0,0,0,0,0,0,0,0,0,0,0,undefined,0,42,17.602319999999963,-83,-42.60657999999967,999,4.333333333333333,Off,0,1,0,0,-1,false,false
20:05:56 GMT-0500 Sat Mar 12 2022,false,42,17.603178,-83,-42.60738,329.75,0,0,0,0,0,0,0,0,0,0,0,0,undefined,0,42,17.602319999999963,-83,-42.60656999999992,999,2.3666666666666667,Off,0,1,0,0,-1,false,false
20:05:56 GMT-0500 Sat Mar 12 2022,false,42,17.603238,-83,-42.607526,297.875,0,0,0,0,0,0,0,0,0,0,0,0,undefined,0,42,17.602520000000368,-83,-42.606690000000526,333.94,89.28333333333333,Off,0,1,0,0,-1,false,false
20:05:57 GMT-0500 Sat Mar 12 2022,false,42,17.603286,-83,-42.607633,298.375,0,0,0,0,0,0,0,0,0,0,0,0,undefined,0,42,17.602719999999863,-83,-42.60688999999911,335.57,84.98333333333333,Off,0,1,0,0,-1,false,false
20:05:57 GMT-0500 Sat Mar 12 2022,false,42,17.603288,-83,-42.607672,269.0625,0,0,0,0,0,0,0,0,0,0,0,0,undefined,0,42,17.602810000000318,-83,-42.60699000000022,19.45,31.666666666666668,Off,0,1,0,0,-1,false,false
20:05:58 GMT-0500 Sat Mar 12 2022,false,42,17.60328,-83,-42.607654,251.625,0,0,0,0,0,0,0,0,0,0,0,0,undefined,0,42,17.60279999999966,-83,-42.60693999999967,343.39,14.383333333333333,Off,0,1,0,0,-1,false,false
20:05:58 GMT-0500 Sat Mar 12 2022,false,42,17.603279,-83,-42.607633,221.625,0,0,0,0,0,0,0,0,0,0,0,0,undefined,0,42,17.602930000000015,-83,-42.607099999999264,312.16,11.033333333333333,Off,0,1,0,0,-1,false,false
20:05:59 GMT-0500 Sat Mar 12 2022,false,42,17.603274,-83,-42.607625,214.8125,0,0,0,0,0,0,0,0,0,0,0,0,undefined,0,42,17.602960000000166,-83,-42.607130000000325,999,1.2833333333333334,Off,0,1,0,0,-1,false,false
20:05:59 GMT-0500 Sat Mar 12 2022,false,42,17.603266,-83,-42.607618,213.3125,0,0,0,0,0,0,0,0,0,0,0,0,undefined,0,42,17.602969999999914,-83,-42.607130000000325,999,2.3833333333333333,Off,0,1,0,0,-1,false,false
20:06:00 GMT-0500 Sat Mar 12 2022,false,42,17.603263,-83,-42.607608,218.9375,0,0,0,0,0,0,0,0,0,0,0,0,undefined,0,42,17.602969999999914,-83,-42.60712000000058,999,4.1,Off,0,1,0,0,-1,false,false
20:06:00 GMT-0500 Sat Mar 12 2022,false,42,17.603257,-83,-42.607605,219.0625,0,0,0,0,0,0,0,0,0,0,0,0,undefined,0,42,17.60297999999966,-83,-42.607130000000325,999,2.05,Off,0,1,0,0,-1,false,false
20:06:01 GMT-0500 Sat Mar 12 2022,false,42,17.603252,-83,-42.607597,217.375,0,0,0,0,0,0,0,0,0,0,0,0,undefined,0,42,17.602990000000318,-83,-42.607130000000325,999,0.31666666666666665,Off,0,1,0,0,-1,false,false
20:06:01 GMT-0500 Sat Mar 12 2022,false,42,17.603242,-83,-42.607594,212.625,0,0,0,0,0,0,0,0,0,0,0,0,undefined,0,42,17.602990000000318,-83,-42.607130000000325,999,2.033333333333333,Off,0,1,0,0,-1,false,false
20:06:02 GMT-0500 Sat Mar 12 2022,false,42,17.603179,-83,-42.607614,196.0625,0,0,0,0,0,0,0,0,0,0,0,0,undefined,0,42,17.603000000000065,-83,-42.60712000000058,999,1.5166666666666666,Off,0,1,0,0,-1,false,false
20:06:02 GMT-0500 Sat Mar 12 2022,false,42,17.603177,-83,-42.607605,158.4375,0,0,0,0,0,0,0,0,0,0,0,0,undefined,0,42,17.602990000000318,-83,-42.60712000000058,999,0.9666666666666667,Off,0,1,0,0,-1,false,false
20:06:03 GMT-0500 Sat Mar 12 2022,false,42,17.603193,-83,-42.607627,122.4375,0,0,0,0,0,0,0,0,0,0,0,0,undefined,0,42,17.602990000000318,-83,-42.60711000000083,999,1.9,Off,0,1,0,0,-1,false,false
20:06:03 GMT-0500 Sat Mar 12 2022,false,42,17.603205,-83,-42.60765,128.5625,0,0,0,0,0,0,0,0,0,0,0,0,undefined,0,42,17.602990000000318,-83,-42.607099999999264,999,1.6166666666666667,Off,0,1,0,0,-1,false,false
20:06:04 GMT-0500 Sat Mar 12 2022,false,42,17.603187,-83,-42.607635,198.8125,0,0,0,0,0,0,0,0,0,0,0,0,undefined,0,42,17.602990000000318,-83,-42.607089999999516,999,6.033333333333333,Off,0,1,0,0,-1,false,false
20:06:04 GMT-0500 Sat Mar 12 2022,false,42,17.603186,-83,-42.607626,218.0625,0,0,0,0,0,0,0,0,0,0,0,0,undefined,0,42,17.602990000000318,-83,-42.60707999999977,999,2.066666666666667,Off,0,1,0,0,-1,false,false
20:06:05 GMT-0500 Sat Mar 12 2022,false,42,17.603153,-83,-42.607639,193.9375,0,0,0,0,0,0,0,0,0,0,0,0,undefined,0,42,17.60295000000042,-83,-42.60704000000078,246.67,14.833333333333334,Off,0,1,0,0,-1,false,false
20:06:05 GMT-0500 Sat Mar 12 2022,false,42,17.60314,-83,-42.607631,185.5625,0,0,0,0,0,0,0,0,0,0,0,0,undefined,0,42,17.602899999999863,-83,-42.60693999999967,154.64,17.433333333333334,Off,0,1,0,0,-1,false,false
20:06:06 GMT-0500 Sat Mar 12 2022,false,42,17.603126,-83,-42.607623,189.8125,0,0,0,0,0,0,0,0,0,0,0,0,undefined,0,42,17.60283999999956,-83,-42.60678999999982,84.18,19.933333333333334,Off,0,1,0,0,-1,false,false
20:06:06 GMT-0500 Sat Mar 12 2022,false,42,17.603093,-83,-42.607612,178.1875,0,0,0,0,0,0,0,0,0,0,0,0,undefined,0,42,17.602810000000318,-83,-42.60675000000083,999,0.9333333333333333,Off,0,1,0,0,-1,false,false
20:06:07 GMT-0500 Sat Mar 12 2022,false,42,17.603116,-83,-42.6076,179.375,0,0,0,0,0,0,0,0,0,0,0,0,undefined,0,42,17.602780000000166,-83,-42.60671000000002,999,0.2,Off,0,1,0,0,-1,false,false
20:06:07 GMT-0500 Sat Mar 12 2022,false,42,17.603094,-83,-42.607587,184.25,0,0,0,0,0,0,0,0,0,0,0,0,undefined,0,42,17.602759999999762,-83,-42.606620000000476,245.2,21.433333333333334,Off,0,1,0,0,-1,false,false
20:06:08 GMT-0500 Sat Mar 12 2022,false,42,17.603088,-83,-42.607573,189.375,0,0,0,0,0,0,0,0,0,0,0,0,undefined,0,42,17.602700000000368,-83,-42.60671999999977,247.74,49.483333333333334,Off,0,1,0,0,-1,false,false
20:06:08 GMT-0500 Sat Mar 12 2022,false,42,17.603081,-83,-42.607563,186.375,0,0,0,0,0,0,0,0,0,0,0,0,undefined,0,42,17.602640000000065,-83,-42.60685999999987,250.93,27.266666666666666,Off,0,1,0,0,-1,false,false
20:06:09 GMT-0500 Sat Mar 12 2022,false,42,17.603071,-83,-42.607553,181.8125,0,0,0,0,0,0,0,0,0,0,0,0,undefined,0,42,17.60257999999976,-83,-42.60692999999992,233.76,15.383333333333333,Off,0,1,0,0,-1,false,false
20:06:09 GMT-0500 Sat Mar 12 2022,false,42,17.603057,-83,-42.607544,174.25,0,0,0,0,0,0,0,0,0,0,0,0,undefined,0,42,17.602490000000216,-83,-42.60712000000058,242.67,51,Off,0,1,0,0,-1,false,false
20:06:10 GMT-0500 Sat Mar 12 2022,false,42,17.603048,-83,-42.60754,157.25,0,0,0,0,0,0,0,0,0,0,0,0,undefined,0,42,17.602390000000014,-83,-42.60731999999916,235.04,31.616666666666667,Off,0,1,0,0,-1,false,false
20:06:10 GMT-0500 Sat Mar 12 2022,false,42,17.603025,-83,-42.607529,156.125,0,0,0,0,0,0,0,0,0,0,0,0,undefined,0,42,17.602319999999963,-83,-42.60741000000053,230.75,25.533333333333335,Off,0,1,0,0,-1,false,false
20:06:11 GMT-0500 Sat Mar 12 2022,false,42,17.603006,-83,-42.607521,149.75,0,0,0,0,0,0,0,0,0,0,0,0,undefined,0,42,17.602249999999913,-83,-42.60747000000083,220.08,26.75,Off,0,1,0,0,-1,false,false
20:06:11 GMT-0500 Sat Mar 12 2022,false,42,17.602986,-83,-42.607515,147.375,0,0,0,0,0,0,0,0,0,0,0,0,undefined,0,42,17.602200000000266,-83,-42.607529999999315,218.7,17.166666666666668,Off,0,1,0,0,-1,false,false
20:06:12 GMT-0500 Sat Mar 12 2022,false,42,17.602988,-83,-42.607527,150.3125,0,0,0,0,0,0,0,0,0,0,0,0,undefined,0,42,17.60214999999971,-83,-42.60760999999911,234.86,14.366666666666667,Off,0,1,0,0,-1,false,false
20:06:12 GMT-0500 Sat Mar 12 2022,false,42,17.602976,-83,-42.60753,158.9375,0,0,0,0,0,0,0,0,0,0,0,0,undefined,0,42,17.60207999999966,-83,-42.607679999999164,226.09,18.383333333333333,Off,0,1,0,0,-1,false,false
20:06:13 GMT-0500 Sat Mar 12 2022,false,42,17.602972,-83,-42.607539,152.8125,0,0,0,0,0,0,0,0,0,0,0,0,undefined,0,42,17.602030000000013,-83,-42.607749999999214,231.82,15.933333333333334,Off,0,1,0,0,-1,false,false
20:06:13 GMT-0500 Sat Mar 12 2022,false,42,17.602944,-83,-42.607532,134.5625,0,0,0,0,0,0,0,0,0,0,0,0,undefined,0,42,17.601990000000114,-83,-42.60779999999977,999,6.516666666666667,Off,0,1,0,0,-1,false,false
20:06:14 GMT-0500 Sat Mar 12 2022,false,42,17.602938,-83,-42.607544,134.125,0,0,0,0,0,0,0,0,0,0,0,0,undefined,0,42,17.60182999999961,-83,-42.60798000000068,227.72,50.05,Off,0,1,0,0,-1,false,false
20:06:14 GMT-0500 Sat Mar 12 2022,false,42,17.602911,-83,-42.607561,135.9375,0,0,0,0,0,0,0,0,0,0,0,0,undefined,0,42,17.600650000000314,-83,-42.60927000000083,220.21,36.8,Off,0,1,0,0,-1,false,false
20:06:15 GMT-0500 Sat Mar 12 2022,false,42,17.602863,-83,-42.607568,139.75,0,0,0,0,0,0,0,0,0,0,0,0,undefined,0,42,17.600459999999657,-83,-42.609449999999924,217.32,54.78333333333333,Off,0,1,0,0,-1,false,false
20:06:15 GMT-0500 Sat Mar 12 2022,false,42,17.60282,-83,-42.60759,146.1875,0,0,0,0,0,0,0,0,0,0,0,0,undefined,0,42,17.60026999999991,-83,-42.60961999999927,217.21,50.583333333333336,Off,0,1,0,0,-1,false,false
20:06:16 GMT-0500 Sat Mar 12 2022,false,42,17.60278,-83,-42.60762,152.5,0,0,0,0,0,0,0,0,0,0,0,0,undefined,0,42,17.600099999999657,-83,-42.60975999999937,212.89,56.166666666666664,Off,0,1,0,0,-1,false,false
20:06:16 GMT-0500 Sat Mar 12 2022,false,42,17.602729,-83,-42.607643,145.75,0,0,0,0,0,0,0,0,0,0,0,0,undefined,0,42,17.59990000000016,-83,-42.609920000000784,213.51,55.71666666666667,Off,0,1,0,0,-1,false,false
20:06:17 GMT-0500 Sat Mar 12 2022,false,42,17.60269,-83,-42.607665,143.375,0,0,0,0,0,0,0,0,0,0,0,0,undefined,0,42,17.59969000000001,-83,-42.61008000000038,214.91,52.983333333333334,Off,0,1,0,0,-1,false,false
20:06:17 GMT-0500 Sat Mar 12 2022,false,42,17.602638,-83,-42.607693,143.25,0,0,0,0,0,0,0,0,0,0,0,0,undefined,0,42,17.599519999999757,-83,-42.61023000000023,217.07,47.1,Off,0,1,0,0,-1,false,false
20:06:18 GMT-0500 Sat Mar 12 2022,false,42,17.602583,-83,-42.607719,138,0,0,0,0,0,0,0,0,0,0,0,0,undefined,0,42,17.59933000000001,-83,-42.610350000000835,204.06,68.08333333333333,Off,0,1,0,0,-1,false,false
20:06:18 GMT-0500 Sat Mar 12 2022,false,42,17.602538,-83,-42.60776,149.875,0,0,0,0,0,0,0,0,0,0,0,0,undefined,0,42,17.599159999999756,-83,-42.610529999999926,219.03,38.35,Off,0,1,0,0,-1,false,false
20:06:19 GMT-0500 Sat Mar 12 2022,false,42,17.602473,-83,-42.607787,151.3125,0,0,0,0,0,0,0,0,0,0,0,0,undefined,0,42,17.598979999999756,-83,-42.610710000000836,220.03,53.266666666666666,Off,0,1,0,0,-1,false,false
20:06:19 GMT-0500 Sat Mar 12 2022,false,42,17.602423,-83,-42.607813,149.4375,0,0,0,0,0,0,0,0,0,0,0,0,undefined,0,42,17.598790000000008,-83,-42.610899999999674,217.26,62.68333333333333,Off,0,1,0,0,-1,false,false
20:06:20 GMT-0500 Sat Mar 12 2022,false,42,17.602354,-83,-42.607843,145.1875,0,0,0,0,0,0,0,0,0,0,0,0,undefined,0,42,17.598610000000008,-83,-42.611080000000584,209.78,44.28333333333333,Off,0,1,0,0,-1,false,false
20:06:20 GMT-0500 Sat Mar 12 2022,false,42,17.602281,-83,-42.607871,144.125,0,0,0,0,0,0,0,0,0,0,0,0,undefined,0,42,17.59842000000026,-83,-42.61124999999993,211.77,51.21666666666667,Off,0,1,0,0,-1,false,false
20:06:21 GMT-0500 Sat Mar 12 2022,false,42,17.602212,-83,-42.607905,145.375,0,0,0,0,0,0,0,0,0,0,0,0,undefined,0,42,17.598229999999603,-83,-42.61141999999927,213.27,53.016666666666666,Off,0,1,0,0,-1,false,false
20:06:21 GMT-0500 Sat Mar 12 2022,false,42,17.602139,-83,-42.607939,147.5,0,0,0,0,0,0,0,0,0,0,0,0,undefined,0,42,17.598079999999754,-83,-42.611549999999625,210.08,49.46666666666667,Off,0,1,0,0,-1,false,false
20:06:22 GMT-0500 Sat Mar 12 2022,false,42,17.602073,-83,-42.607983,146.8125,0,0,0,0,0,0,0,0,0,0,0,0,undefined,0,42,17.597899999999754,-83,-42.611730000000534,213.29,40.36666666666667,Off,0,1,0,0,-1,false,false
20:06:22 GMT-0500 Sat Mar 12 2022,false,42,17.602031,-83,-42.60801,157.5625,0,0,0,0,0,0,0,0,0,0,0,0,undefined,0,42,17.597789999999804,-83,-42.611870000000636,225.82,36.56666666666667,Off,0,1,0,0,-1,false,false
20:06:23 GMT-0500 Sat Mar 12 2022,false,42,17.601925,-83,-42.608063,168.9375,0,0,0,0,0,0,0,0,0,0,0,0,undefined,0,42,17.597649999999703,-83,-42.61210000000028,232.58,36.733333333333334,Off,0,1,0,0,-1,false,false
20:06:23 GMT-0500 Sat Mar 12 2022,false,42,17.601852,-83,-42.608118,181.5,0,0,0,0,0,0,0,0,0,0,0,0,undefined,0,42,17.597560000000158,-83,-42.612339999999676,245.76,40.38333333333333,Off,0,1,0,0,-1,false,false
20:06:24 GMT-0500 Sat Mar 12 2022,false,42,17.601778,-83,-42.608179,186.4375,0,0,0,0,0,0,0,0,0,0,0,0,undefined,0,42,17.597509999999602,-83,-42.612600000000384,254.87,34.56666666666667,Off,0,1,0,0,-1,false,false
20:06:24 GMT-0500 Sat Mar 12 2022,false,42,17.601709,-83,-42.608243,193.1875,0,0,0,0,0,0,0,0,0,0,0,0,undefined,0,42,17.597459999999955,-83,-42.612849999999526,249.08,37.05,Off,0,1,0,0,-1,false,false
20:06:25 GMT-0500 Sat Mar 12 2022,false,42,17.601645,-83,-42.608301,195.8125,0,0,0,0,0,0,0,0,0,0,0,0,undefined,0,42,17.597450000000208,-83,-42.61307999999917,265.37,44.45,Off,0,1,0,0,-1,false,false
20:06:25 GMT-0500 Sat Mar 12 2022,false,42,17.601562,-83,-42.608375,191.3125,0,0,0,0,0,0,0,0,0,0,0,0,undefined,0,42,17.597450000000208,-83,-42.61333999999988,268.99,48.2,Off,0,1,0,0,-1,false,false
20:06:26 GMT-0500 Sat Mar 12 2022,false,42,17.601496,-83,-42.608448,196,0,0,0,0,0,0,0,0,0,0,0,0,undefined,0,42,17.597429999999804,-83,-42.61367000000064,262.5,56.06666666666667,Off,0,1,0,0,-1,false,false
20:06:26 GMT-0500 Sat Mar 12 2022,false,42,17.601429,-83,-42.608528,205.3125,0,0,0,0,0,0,0,0,0,0,0,0,undefined,0,42,17.597429999999804,-83,-42.61396000000059,279.17,43.61666666666667,Off,0,1,0,0,-1,false,false
20:06:27 GMT-0500 Sat Mar 12 2022,false,42,17.601369,-83,-42.608608,208.3125,0,0,0,0,0,0,0,0,0,0,0,0,undefined,0,42,17.59743999999955,-83,-42.61427999999978,274.85,47.78333333333333,Off,0,1,0,0,-1,false,false
20:06:27 GMT-0500 Sat Mar 12 2022,false,42,17.601322,-83,-42.608674,208.3125,0,0,0,0,0,0,0,0,0,0,0,0,undefined,0,42,17.597450000000208,-83,-42.61460000000079,271.99,48.5,Off,0,1,0,0,-1,false,false
20:06:28 GMT-0500 Sat Mar 12 2022,false,42,17.601268,-83,-42.608757,213.375,0,0,0,0,0,0,0,0,0,0,0,0,undefined,0,42,17.597450000000208,-83,-42.614840000000186,270.21,54.05,Off,0,1,0,0,-1,false,false
20:06:28 GMT-0500 Sat Mar 12 2022,false,42,17.60121,-83,-42.608846,214.375,0,0,0,0,0,0,0,0,0,0,0,0,undefined,0,42,17.597469999999703,-83,-42.615130000000136,274.36,49.4,Off,0,1,0,0,-1,false,false
20:06:29 GMT-0500 Sat Mar 12 2022,false,42,17.601148,-83,-42.608943,212.3125,0,0,0,0,0,0,0,0,0,0,0,0,undefined,0,42,17.59748000000036,-83,-42.61542999999983,269.22,59.63333333333333,Off,0,1,0,0,-1,false,false
20:06:29 GMT-0500 Sat Mar 12 2022,false,42,17.601088,-83,-42.609041,212.75,0,0,0,0,0,0,0,0,0,0,0,0,undefined,0,42,17.597509999999602,-83,-42.61571999999978,274.17,51.583333333333336,Off,0,1,0,0,-1,false,false
20:06:30 GMT-0500 Sat Mar 12 2022,false,42,17.601039,-83,-42.609123,212.125,0,0,0,0,0,0,0,0,0,0,0,0,undefined,0,42,17.59752000000026,-83,-42.616040000000794,269.95,55.61666666666667,Off,0,1,0,0,-1,false,false
20:06:30 GMT-0500 Sat Mar 12 2022,false,42,17.600976,-83,-42.60923,212.4375,0,0,0,0,0,0,0,0,0,0,0,0,undefined,0,42,17.597539999999753,-83,-42.61635000000024,273.56,51.85,Off,0,1,0,0,-1,false,false
20:06:31 GMT-0500 Sat Mar 12 2022,false,42,17.600911,-83,-42.60934,208,0,0,0,0,0,0,0,0,0,0,0,0,undefined,0,42,17.597560000000158,-83,-42.61666999999943,270.53,64.56666666666666,Off,0,1,0,0,-1,false,false
20:06:31 GMT-0500 Sat Mar 12 2022,false,42,17.600848,-83,-42.609451,208.25,0,0,0,0,0,0,0,0,0,0,0,0,undefined,0,42,17.597579999999653,-83,-42.616910000000644,280.03,47.36666666666667,Off,0,1,0,0,-1,false,false
20:06:32 GMT-0500 Sat Mar 12 2022,false,42,17.600782,-83,-42.609568,211.875,0,0,0,0,0,0,0,0,0,0,0,0,undefined,0,42,17.597600000000057,-83,-42.61721000000034,274.18,44.416666666666664,Off,0,1,0,0,-1,false,false
20:06:32 GMT-0500 Sat Mar 12 2022,false,42,17.600728,-83,-42.609668,213.6875,0,0,0,0,0,0,0,0,0,0,0,0,undefined,0,42,17.59761999999955,-83,-42.617519999999786,277.47,48.166666666666664,Off,0,1,0,0,-1,false,false
20:06:33 GMT-0500 Sat Mar 12 2022,false,42,17.600665,-83,-42.609789,208.8125,0,0,0,0,0,0,0,0,0,0,0,0,undefined,0,42,17.59763000000021,-83,-42.61781999999948,270.2,51.06666666666667,Off,0,1,0,0,-1,false,false
20:06:33 GMT-0500 Sat Mar 12 2022,false,42,17.60061,-83,-42.609908,214.5,0,0,0,0,0,0,0,0,0,0,0,0,undefined,0,42,17.597649999999703,-83,-42.61813000000075,274.17,53.333333333333336,Off,0,1,0,0,-1,false,false
20:06:34 GMT-0500 Sat Mar 12 2022,false,42,17.600553,-83,-42.610034,214.6875,0,0,0,0,0,0,0,0,0,0,0,0,undefined,0,42,17.597689999999602,-83,-42.61844000000019,276.2,58.95,Off,0,1,0,0,-1,false,false
20:06:34 GMT-0500 Sat Mar 12 2022,false,42,17.600499,-83,-42.61016,217,0,0,0,0,0,0,0,0,0,0,0,0,undefined,0,42,17.597710000000006,-83,-42.618679999999586,281.56,45.86666666666667,Off,0,1,0,0,-1,false,false
20:06:35 GMT-0500 Sat Mar 12 2022,false,42,17.600456,-83,-42.610263,216.5625,0,0,0,0,0,0,0,0,0,0,0,0,undefined,0,42,17.59773000000041,-83,-42.61899000000085,274.34,50.06666666666667,Off,0,1,0,0,-1,false,false
20:06:35 GMT-0500 Sat Mar 12 2022,false,42,17.600403,-83,-42.610395,214.25,0,0,0,0,0,0,0,0,0,0,0,0,undefined,0,42,17.597749999999905,-83,-42.61929000000055,276.71,43.86666666666667,Off,0,1,0,0,-1,false,false
20:06:36 GMT-0500 Sat Mar 12 2022,false,42,17.600355,-83,-42.610523,216.25,0,0,0,0,0,0,0,0,0,0,0,0,undefined,0,42,17.597780000000057,-83,-42.619590000000244,277.54,48.916666666666664,Off,0,1,0,0,-1,false,false
20:06:36 GMT-0500 Sat Mar 12 2022,false,42,17.600309,-83,-42.610655,218.5625,0,0,0,0,0,0,0,0,0,0,0,0,undefined,0,42,17.59781000000021,-83,-42.61989999999969,274.8,46.96666666666667,Off,0,1,0,0,-1,false,false
20:06:37 GMT-0500 Sat Mar 12 2022,false,42,17.600258,-83,-42.610792,212.125,0,0,0,0,0,0,0,0,0,0,0,0,undefined,0,42,17.597829999999703,-83,-42.620199999999386,279.89,43.86666666666667,Off,0,1,0,0,-1,false,false
20:06:37 GMT-0500 Sat Mar 12 2022,false,42,17.600224,-83,-42.610898,214.0625,0,0,0,0,0,0,0,0,0,0,0,0,undefined,0,42,17.597859999999855,-83,-42.6205200000004,277.12,48.31666666666667,Off,0,1,0,0,-1,false,false
20:06:38 GMT-0500 Sat Mar 12 2022,false,42,17.60017,-83,-42.611048,221.125,0,0,0,0,0,0,0,0,0,0,0,0,undefined,0,42,17.59788000000026,-83,-42.62075999999979,276.56,48.75,Off,0,1,0,0,-1,false,false
20:06:38 GMT-0500 Sat Mar 12 2022,false,42,17.600117,-83,-42.611198,216,0,0,0,0,0,0,0,0,0,0,0,0,undefined,0,42,17.59791000000041,-83,-42.62104999999974,273.5,45.86666666666667,Off,0,1,0,0,-1,false,false
20:06:39 GMT-0500 Sat Mar 12 2022,false,42,17.600072,-83,-42.611342,217.875,0,0,0,0,0,0,0,0,0,0,0,0,undefined,0,42,17.597939999999653,-83,-42.621359999999186,276.8,50.25,Off,0,1,0,0,-1,false,false
20:06:39 GMT-0500 Sat Mar 12 2022,false,42,17.600027,-83,-42.611488,210.9375,0,0,0,0,0,0,0,0,0,0,0,0,undefined,0,42,17.597969999999805,-83,-42.62167000000045,276.83,51.11666666666667,Off,0,1,0,0,-1,false,false
20:06:40 GMT-0500 Sat Mar 12 2022,false,42,17.599992,-83,-42.611604,214.0625,0,0,0,0,0,0,0,0,0,0,0,0,undefined,0,42,17.597999999999956,-83,-42.621979999999894,281.24,48.483333333333334,Off,0,1,0,0,-1,false,false
20:06:40 GMT-0500 Sat Mar 12 2022,false,42,17.599942,-83,-42.611761,217.1875,0,0,0,0,0,0,0,0,0,0,0,0,undefined,0,42,17.598030000000108,-83,-42.6222600000001,266.62,49.13333333333333,Off,0,1,0,0,-1,false,false
20:06:41 GMT-0500 Sat Mar 12 2022,false,42,17.599898,-83,-42.611912,211.8125,0,0,0,0,0,0,0,0,0,0,0,0,undefined,0,42,17.59806000000026,-83,-42.62250999999924,278.32,50.166666666666664,Off,0,1,0,0,-1,false,false
20:06:41 GMT-0500 Sat Mar 12 2022,false,42,17.599861,-83,-42.612061,217.625,0,0,0,0,0,0,0,0,0,0,0,0,undefined,0,42,17.598109999999906,-83,-42.62278999999944,282.32,49.28333333333333,Off,0,1,0,0,-1,false,false
20:06:42 GMT-0500 Sat Mar 12 2022,false,42,17.599816,-83,-42.612223,219.3125,0,0,0,0,0,0,0,0,0,0,0,0,undefined,0,42,17.598140000000058,-83,-42.6231200000002,277.33,58.03333333333333,Off,0,1,0,0,-1,false,false
20:06:42 GMT-0500 Sat Mar 12 2022,false,42,17.599782,-83,-42.612351,213.75,0,0,0,0,0,0,0,0,0,0,0,0,undefined,0,42,17.59817000000021,-83,-42.623390000000654,285,44.65,Off,0,1,0,0,-1,false,false
20:06:43 GMT-0500 Sat Mar 12 2022,false,42,17.599744,-83,-42.612505,211.1875,0,0,0,0,0,0,0,0,0,0,0,0,undefined,0,42,17.598219999999856,-83,-42.623639999999796,282.67,49.083333333333336,Off,0,1,0,0,-1,false,false
20:06:43 GMT-0500 Sat Mar 12 2022,false,42,17.599706,-83,-42.612661,214.3125,0,0,0,0,0,0,0,0,0,0,0,0,undefined,0,42,17.59824000000026,-83,-42.6239000000005,284.9,39.93333333333333,Off,0,1,0,0,-1,false,false
20:06:44 GMT-0500 Sat Mar 12 2022,false,42,17.599671,-83,-42.612816,212.125,0,0,0,0,0,0,0,0,0,0,0,0,undefined,0,42,17.598259999999755,-83,-42.62416999999914,271.47,36.05,Off,0,1,0,0,-1,false,false
20:06:44 GMT-0500 Sat Mar 12 2022,false,42,17.59964,-83,-42.61297,216.75,0,0,0,0,0,0,0,0,0,0,0,0,undefined,0,42,17.598259999999755,-83,-42.6243599999998,268.1,40.13333333333333,Off,0,1,0,0,-1,false,false
20:06:45 GMT-0500 Sat Mar 12 2022,false,42,17.599624,-83,-42.613087,210.6875,0,0,0,0,0,0,0,0,0,0,0,0,undefined,0,42,17.598289999999906,-83,-42.6245600000002,276.29,27.15,Off,0,1,0,0,-1,false,false
20:06:45 GMT-0500 Sat Mar 12 2022,false,42,17.599602,-83,-42.613235,208.875,0,0,0,0,0,0,0,0,0,0,0,0,undefined,0,42,17.598289999999906,-83,-42.624799999999595,280.61,28.366666666666667,Off,0,1,0,0,-1,false,false
20:06:46 GMT-0500 Sat Mar 12 2022,false,42,17.599584,-83,-42.613379,210.375,0,0,0,0,0,0,0,0,0,0,0,0,undefined,0,42,17.598250000000007,-83,-42.625019999999495,262.28,35.95,Off,0,1,0,0,-1,false,false
20:06:46 GMT-0500 Sat Mar 12 2022,false,42,17.599565,-83,-42.613526,212.75,0,0,0,0,0,0,0,0,0,0,0,0,undefined,0,42,17.59827000000041,-83,-42.62519000000066,271.81,37.083333333333336,Off,0,1,0,0,-1,false,false
20:06:47 GMT-0500 Sat Mar 12 2022,false,42,17.599537,-83,-42.613683,216.5625,0,0,0,0,0,0,0,0,0,0,0,0,undefined,0,42,17.598299999999654,-83,-42.62543000000005,275.83,31.45,Off,0,1,0,0,-1,false,false
20:06:47 GMT-0500 Sat Mar 12 2022,false,42,17.599517,-83,-42.613807,213.3125,0,0,0,0,0,0,0,0,0,0,0,0,undefined,0,42,17.598369999999704,-83,-42.6256599999997,285.83,45.46666666666667,Off,0,1,0,0,-1,false,false
20:06:48 GMT-0500 Sat Mar 12 2022,false,42,17.599516,-83,-42.61394,216.1875,0,0,0,0,0,0,0,0,0,0,0,0,undefined,0,42,17.598359999999957,-83,-42.6257999999998,278.76,33.6,Off,0,1,0,0,-1,false,false
20:06:48 GMT-0500 Sat Mar 12 2022,false,42,17.599522,-83,-42.614062,217.875,0,0,0,0,0,0,0,0,0,0,0,0,undefined,0,42,17.598369999999704,-83,-42.62603999999919,261.74,30.8,Off,0,1,0,0,-1,false,false
20:06:49 GMT-0500 Sat Mar 12 2022,false,42,17.599513,-83,-42.614208,190.6875,0,0,0,0,0,0,0,0,0,0,0,0,undefined,0,42,17.598339999999553,-83,-42.62616999999955,999,4.316666666666666,Off,0,1,0,0,-1,false,false
20:06:49 GMT-0500 Sat Mar 12 2022,false,42,17.599513,-83,-42.614354,169.875,0,0,0,0,0,0,0,0,0,0,0,0,undefined,0,42,17.59827000000041,-83,-42.626249999999345,999,2.566666666666667,Off,0,1,0,0,-1,false,false
20:06:50 GMT-0500 Sat Mar 12 2022,false,42,17.599498,-83,-42.614499,169.4375,0,0,0,0,0,0,0,0,0,0,0,0,undefined,0,42,17.59824000000026,-83,-42.626280000000406,999,0.9833333333333333,Off,0,1,0,0,-1,false,false
20:06:50 GMT-0500 Sat Mar 12 2022,false,42,17.599485,-83,-42.614614,169.25,0,0,0,0,0,0,0,0,0,0,0,0,undefined,0,42,17.598219999999856,-83,-42.626319999999396,999,1.7166666666666666,Off,0,1,0,0,-1,false,false
20:06:51 GMT-0500 Sat Mar 12 2022,false,42,17.59947,-83,-42.614757,168.8125,0,0,0,0,0,0,0,0,0,0,0,0,undefined,0,42,17.59820000000036,-83,-42.62634000000071,999,1.7333333333333334,Off,0,1,0,0,-1,false,false
20:06:51 GMT-0500 Sat Mar 12 2022,false,42,17.599454,-83,-42.614897,168.75,0,0,0,0,0,0,0,0,0,0,0,0,undefined,0,42,17.59817000000021,-83,-42.626360000000204,999,0.7166666666666667,Off,0,1,0,0,-1,false,false
20:06:52 GMT-0500 Sat Mar 12 2022,false,42,17.599438,-83,-42.615036,168.6875,0,0,0,0,0,0,0,0,0,0,0,0,undefined,0,42,17.598149999999805,-83,-42.626360000000204,999,2.15,Off,0,1,0,0,-1,false,false
20:06:52 GMT-0500 Sat Mar 12 2022,false,42,17.599423,-83,-42.615174,168.6875,0,0,0,0,0,0,0,0,0,0,0,0,undefined,0,42,17.598149999999805,-83,-42.626360000000204,999,1.9,Off,0,1,0,0,-1,false,false
20:06:53 GMT-0500 Sat Mar 12 2022,false,42,17.599407,-83,-42.615309,168.6875,0,0,0,0,0,0,0,0,0,0,0,0,undefined,0,42,17.598159999999552,-83,-42.626360000000204,999,1.5,Off,0,1,0,0,-1,false,false
20:06:53 GMT-0500 Sat Mar 12 2022,false,42,17.599395,-83,-42.615416,168.6875,0,0,0,0,0,0,0,0,0,0,0,0,undefined,0,42,17.598159999999552,-83,-42.626360000000204,999,1.5833333333333333,Off,0,1,0,0,-1,false,false
20:06:54 GMT-0500 Sat Mar 12 2022,false,42,17.59938,-83,-42.615548,168.6875,0,0,0,0,0,0,0,0,0,0,0,0,undefined,0,42,17.598159999999552,-83,-42.62635000000046,999,0.9,Off,0,1,0,0,-1,false,false
20:06:54 GMT-0500 Sat Mar 12 2022,false,42,17.599366,-83,-42.615678,168.6875,0,0,0,0,0,0,0,0,0,0,0,0,undefined,0,42,17.59817000000021,-83,-42.626360000000204,999,0.8,Off,0,1,0,0,-1,false,false
20:06:55 GMT-0500 Sat Mar 12 2022,false,42,17.599351,-83,-42.615807,168.6875,0,0,0,0,0,0,0,0,0,0,0,0,undefined,0,42,17.59817000000021,-83,-42.62635000000046,999,0.8,Off,0,1,0,0,-1,false,false
20:06:55 GMT-0500 Sat Mar 12 2022,false,42,17.599337,-83,-42.615934,168.6875,0,0,0,0,0,0,0,0,0,0,0,0,undefined,0,42,17.59817000000021,-83,-42.62635000000046,999,1.45,Off,0,1,0,0,-1,false,false
20:06:56 GMT-0500 Sat Mar 12 2022,false,42,17.599326,-83,-42.616034,168.6875,0,0,0,0,0,0,0,0,0,0,0,0,undefined,0,42,17.598179999999957,-83,-42.626360000000204,999,2.2,Off,0,1,0,0,-1,false,false
20:06:56 GMT-0500 Sat Mar 12 2022,false,42,17.599312,-83,-42.616158,168.6875,0,0,0,0,0,0,0,0,0,0,0,0,undefined,0,42,17.598189999999704,-83,-42.62636999999995,999,0.65,Off,0,1,0,0,-1,false,false
20:06:57 GMT-0500 Sat Mar 12 2022,false,42,17.599299,-83,-42.61628,168.6875,0,0,0,0,0,0,0,0,0,0,0,0,undefined,0,42,17.59820000000036,-83,-42.62636999999995,999,3.8833333333333333,Off,0,1,0,0,-1,false,false
20:06:57 GMT-0500 Sat Mar 12 2022,false,42,17.599281,-83,-42.6164,168.9375,0,0,0,0,0,0,0,0,0,0,0,0,undefined,0,42,17.59821000000011,-83,-42.626389999999446,999,1.9833333333333334,Off,0,1,0,0,-1,false,false
20:06:58 GMT-0500 Sat Mar 12 2022,false,42,17.599274,-83,-42.616521,168.9375,0,0,0,0,0,0,0,0,0,0,0,0,undefined,0,42,17.59821000000011,-83,-42.626389999999446,999,0.9666666666666667,Off,0,1,0,0,-1,false,false
20:06:58 GMT-0500 Sat Mar 12 2022,false,42,17.599263,-83,-42.616615,168.9375,0,0,0,0,0,0,0,0,0,0,0,0,undefined,0,42,17.598219999999856,-83,-42.626389999999446,999,1.9,Off,0,1,0,0,-1,false,false
20:06:59 GMT-0500 Sat Mar 12 2022,false,42,17.599251,-83,-42.616732,168.9375,0,0,0,0,0,0,0,0,0,0,0,0,undefined,0,42,17.598219999999856,-83,-42.62641000000076,999,4.416666666666667,Off,0,1,0,0,-1,false,false
20:06:59 GMT-0500 Sat Mar 12 2022,false,42,17.59924,-83,-42.616848,168.75,0,0,0,0,0,0,0,0,0,0,0,0,undefined,0,42,17.598229999999603,-83,-42.62642000000051,999,2.783333333333333,Off,0,1,0,0,-1,false,false
20:07:00 GMT-0500 Sat Mar 12 2022,false,42,17.599228,-83,-42.616962,168.4375,0,0,0,0,0,0,0,0,0,0,0,0,undefined,0,42,17.59824000000026,-83,-42.626430000000255,999,1.55,Off,0,1,0,0,-1,false,false
20:07:00 GMT-0500 Sat Mar 12 2022,false,42,17.599217,-83,-42.617075,168.4375,0,0,0,0,0,0,0,0,0,0,0,0,undefined,0,42,17.59824000000026,-83,-42.626430000000255,999,2.35,Off,0,1,0,0,-1,false,false
20:07:01 GMT-0500 Sat Mar 12 2022,false,42,17.599205,-83,-42.617187,168.4375,0,0,0,0,0,0,0,0,0,0,0,0,undefined,0,42,17.598259999999755,-83,-42.62644,999,3.6166666666666667,Off,0,1,0,0,-1,false,false
20:07:01 GMT-0500 Sat Mar 12 2022,false,42,17.599196,-83,-42.617275,168.4375,0,0,0,0,0,0,0,0,0,0,0,0,undefined,0,42,17.598259999999755,-83,-42.62644,999,0.5666666666666667,Off,0,1,0,0,-1,false,false
20:07:02 GMT-0500 Sat Mar 12 2022,false,42,17.599185,-83,-42.617383,168.4375,0,0,0,0,0,0,0,0,0,0,0,0,undefined,0,42,17.598259999999755,-83,-42.62644,999,0.8333333333333334,Off,0,1,0,0,-1,false,false
20:07:02 GMT-0500 Sat Mar 12 2022,false,42,17.599174,-83,-42.617491,168.4375,0,0,0,0,0,0,0,0,0,0,0,0,undefined,0,42,17.59827000000041,-83,-42.62644999999975,999,1.0833333333333333,Off,0,1,0,0,-1,false,false
20:07:03 GMT-0500 Sat Mar 12 2022,false,42,17.599163,-83,-42.617597,168.4375,0,0,0,0,0,0,0,0,0,0,0,0,undefined,0,42,17.59828000000016,-83,-42.6264599999995,999,2.25,Off,0,1,0,0,-1,false,false
20:07:03 GMT-0500 Sat Mar 12 2022,false,42,17.599153,-83,-42.617703,168.4375,0,0,0,0,0,0,0,0,0,0,0,0,undefined,0,42,17.598289999999906,-83,-42.626469999999244,999,3.0833333333333335,Off,0,1,0,0,-1,false,false
20:07:04 GMT-0500 Sat Mar 12 2022,false,42,17.599145,-83,-42.617786,168.4375,0,0,0,0,0,0,0,0,0,0,0,0,undefined,0,42,17.598299999999654,-83,-42.62648000000081,999,0.15,Off,0,1,0,0,-1,false,false
20:07:04 GMT-0500 Sat Mar 12 2022,false,42,17.599135,-83,-42.617889,168.4375,0,0,0,0,0,0,0,0,0,0,0,0,undefined,0,42,17.59831000000031,-83,-42.62649000000056,999,2.75,Off,0,1,0,0,-1,false,false
20:07:05 GMT-0500 Sat Mar 12 2022,false,42,17.599125,-83,-42.61799,168.4375,0,0,0,0,0,0,0,0,0,0,0,0,undefined,0,42,17.59831000000031,-83,-42.626500000000306,999,0.85,Off,0,1,0,0,-1,false,false
20:07:05 GMT-0500 Sat Mar 12 2022,false,42,17.599115,-83,-42.618091,168.4375,0,0,0,0,0,0,0,0,0,0,0,0,undefined,0,42,17.598320000000058,-83,-42.626500000000306,999,1.6166666666666667,Off,0,1,0,0,-1,false,false
20:07:06 GMT-0500 Sat Mar 12 2022,false,42,17.599106,-83,-42.61819,168.4375,0,0,0,0,0,0,0,0,0,0,0,0,undefined,0,42,17.598320000000058,-83,-42.62651000000005,999,2.1333333333333333,Off,0,1,0,0,-1,false,false
20:07:06 GMT-0500 Sat Mar 12 2022,false,42,17.599098,-83,-42.618269,168.4375,0,0,0,0,0,0,0,0,0,0,0,0,undefined,0,42,17.598329999999805,-83,-42.6265199999998,999,0.36666666666666664,Off,0,1,0,0,-1,false,false
20:07:07 GMT-0500 Sat Mar 12 2022,false,42,17.599089,-83,-42.618366,168.4375,0,0,0,0,0,0,0,0,0,0,0,0,undefined,0,42,17.598339999999553,-83,-42.62652999999955,999,0.95,Off,0,1,0,0,-1,false,false
20:07:07 GMT-0500 Sat Mar 12 2022,false,42,17.599081,-83,-42.618462,168.4375,0,0,0,0,0,0,0,0,0,0,0,0,undefined,0,42,17.598339999999553,-83,-42.626539999999295,999,2.066666666666667,Off,0,1,0,0,-1,false,false
20:07:08 GMT-0500 Sat Mar 12 2022,false,42,17.599072,-83,-42.618558,168.4375,0,0,0,0,0,0,0,0,0,0,0,0,undefined,0,42,17.59835000000021,-83,-42.626539999999295,999,1.5666666666666667,Off,0,1,0,0,-1,false,false
20:07:08 GMT-0500 Sat Mar 12 2022,false,42,17.599064,-83,-42.618651,168.4375,0,0,0,0,0,0,0,0,0,0,0,0,undefined,0,42,17.598359999999957,-83,-42.626539999999295,999,2.05,Off,0,1,0,0,-1,false,false
20:07:09 GMT-0500 Sat Mar 12 2022,false,42,17.599057,-83,-42.618726,168.4375,0,0,0,0,0,0,0,0,0,0,0,0,undefined,0,42,17.598369999999704,-83,-42.62655000000086,999,1.8166666666666667,Off,0,1,0,0,-1,false,false
20:07:09 GMT-0500 Sat Mar 12 2022,false,42,17.599049,-83,-42.618818,168.4375,0,0,0,0,0,0,0,0,0,0,0,0,undefined,0,42,17.59838000000036,-83,-42.62656000000061,999,1.9666666666666666,Off,0,1,0,0,-1,false,false
20:07:10 GMT-0500 Sat Mar 12 2022,false,42,17.599041,-83,-42.618909,168.4375,0,0,0,0,0,0,0,0,0,0,0,0,undefined,0,42,17.59838000000036,-83,-42.62656000000061,999,3.533333333333333,Off,0,1,0,0,-1,false,false
20:07:10 GMT-0500 Sat Mar 12 2022,false,42,17.599033,-83,-42.618999,168.4375,0,0,0,0,0,0,0,0,0,0,0,0,undefined,0,42,17.59839000000011,-83,-42.626570000000356,999,2.8666666666666667,Off,0,1,0,0,-1,false,false
20:07:11 GMT-0500 Sat Mar 12 2022,false,42,17.599026,-83,-42.619087,168.4375,0,0,0,0,0,0,0,0,0,0,0,0,undefined,0,42,17.598399999999856,-83,-42.626570000000356,999,0.9333333333333333,Off,0,1,0,0,-1,false,false
20:07:11 GMT-0500 Sat Mar 12 2022,false,42,17.599019,-83,-42.619175,168.4375,0,0,0,0,0,0,0,0,0,0,0,0,undefined,0,42,17.598409999999603,-83,-42.626580000000104,999,0.6833333333333333,Off,0,1,0,0,-1,false,false
20:07:12 GMT-0500 Sat Mar 12 2022,false,42,17.599013,-83,-42.619245,168.4375,0,0,0,0,0,0,0,0,0,0,0,0,undefined,0,42,17.59842000000026,-83,-42.626580000000104,999,1.7166666666666666,Off,0,1,0,0,-1,false,false
20:07:12 GMT-0500 Sat Mar 12 2022,false,42,17.599006,-83,-42.619331,168.4375,0,0,0,0,0,0,0,0,0,0,0,0,undefined,0,42,17.598430000000008,-83,-42.626609999999346,999,3.2666666666666666,Off,0,1,0,0,-1,false,false
20:07:13 GMT-0500 Sat Mar 12 2022,false,42,17.598999,-83,-42.619416,168.4375,0,0,0,0,0,0,0,0,0,0,0,0,undefined,0,42,17.598450000000412,-83,-42.62661999999909,999,2.55,Off,0,1,0,0,-1,false,false
20:07:13 GMT-0500 Sat Mar 12 2022,false,42,17.598993,-83,-42.6195,168.4375,0,0,0,0,0,0,0,0,0,0,0,0,undefined,0,42,17.59846000000016,-83,-42.62663000000066,999,1.2166666666666666,Off,0,1,0,0,-1,false,false
20:07:14 GMT-0500 Sat Mar 12 2022,false,42,17.598987,-83,-42.619584,168.4375,0,0,0,0,0,0,0,0,0,0,0,0,undefined,0,42,17.598469999999907,-83,-42.62664000000041,999,3.3833333333333333,Off,0,1,0,0,-1,false,false
20:07:14 GMT-0500 Sat Mar 12 2022,false,42,17.598982,-83,-42.61965,168.4375,0,0,0,0,0,0,0,0,0,0,0,0,undefined,0,42,17.598479999999654,-83,-42.626650000000154,999,2.033333333333333,Off,0,1,0,0,-1,false,false
20:07:15 GMT-0500 Sat Mar 12 2022,false,42,17.598976,-83,-42.619732,168.4375,0,0,0,0,0,0,0,0,0,0,0,0,undefined,0,42,17.598500000000058,-83,-42.626650000000154,999,4.083333333333333,Off,0,1,0,0,-1,false,false
20:07:15 GMT-0500 Sat Mar 12 2022,false,42,17.598971,-83,-42.619813,168.4375,0,0,0,0,0,0,0,0,0,0,0,0,undefined,0,42,17.598509999999806,-83,-42.62666999999965,999,2.1166666666666667,Off,0,1,0,0,-1,false,false
20:07:16 GMT-0500 Sat Mar 12 2022,false,42,17.598966,-83,-42.619893,168.4375,0,0,0,0,0,0,0,0,0,0,0,0,undefined,0,42,17.59853000000021,-83,-42.626689999999144,999,2.2666666666666666,Off,0,1,0,0,-1,false,false
20:07:16 GMT-0500 Sat Mar 12 2022,false,42,17.598961,-83,-42.619972,168.4375,0,0,0,0,0,0,0,0,0,0,0,0,undefined,0,42,17.598549999999705,-83,-42.62670000000071,999,3.15,Off,0,1,0,0,-1,false,false
20:07:17 GMT-0500 Sat Mar 12 2022,false,42,17.598957,-83,-42.620035,168.4375,0,0,0,0,0,0,0,0,0,0,0,0,undefined,0,42,17.59856000000036,-83,-42.626720000000205,999,2.2,Off,0,1,0,0,-1,false,false
20:07:17 GMT-0500 Sat Mar 12 2022,false,42,17.598952,-83,-42.620113,168.4375,0,0,0,0,0,0,0,0,0,0,0,0,undefined,0,42,17.59857000000011,-83,-42.62672999999995,999,3.3833333333333333,Off,0,1,0,0,-1,false,false
20:07:18 GMT-0500 Sat Mar 12 2022,false,42,17.598948,-83,-42.62019,168.4375,0,0,0,0,0,0,0,0,0,0,0,0,undefined,0,42,17.598589999999604,-83,-42.62674999999945,999,2.3,Off,0,1,0,0,-1,false,false
20:07:18 GMT-0500 Sat Mar 12 2022,false,42,17.598944,-83,-42.620267,168.4375,0,0,0,0,0,0,0,0,0,0,0,0,undefined,0,42,17.59860000000026,-83,-42.626759999999194,999,2.35,Off,0,1,0,0,-1,false,false
20:07:19 GMT-0500 Sat Mar 12 2022,false,42,17.59894,-83,-42.620342,168.4375,0,0,0,0,0,0,0,0,0,0,0,0,undefined,0,42,17.598610000000008,-83,-42.62678000000051,999,3.3333333333333335,Off,0,1,0,0,-1,false,false
20:07:19 GMT-0500 Sat Mar 12 2022,false,42,17.598937,-83,-42.620403,168.4375,0,0,0,0,0,0,0,0,0,0,0,0,undefined,0,42,17.598630000000412,-83,-42.626790000000256,999,3.1166666666666667,Off,0,1,0,0,-1,false,false
20:07:20 GMT-0500 Sat Mar 12 2022,false,42,17.598933,-83,-42.620477,168.4375,0,0,0,0,0,0,0,0,0,0,0,0,undefined,0,42,17.59864000000016,-83,-42.62678000000051,999,3.8333333333333335,Off,0,1,0,0,-1,false,false
20:07:20 GMT-0500 Sat Mar 12 2022,false,42,17.59893,-83,-42.62055,168.4375,0,0,0,0,0,0,0,0,0,0,0,0,undefined,0,42,17.598649999999907,-83,-42.6268199999995,999,3.9,Off,0,1,0,0,-1,false,false
20:07:21 GMT-0500 Sat Mar 12 2022,false,42,17.598927,-83,-42.620623,168.4375,0,0,0,0,0,0,0,0,0,0,0,0,undefined,0,42,17.598659999999654,-83,-42.626860000000306,999,1.7666666666666666,Off,0,1,0,0,-1,false,false
20:07:21 GMT-0500 Sat Mar 12 2022,false,42,17.598924,-83,-42.620696,168.4375,0,0,0,0,0,0,0,0,0,0,0,0,undefined,0,42,17.59868000000006,-83,-42.62688999999955,999,2.0833333333333335,Off,0,1,0,0,-1,false,false
20:07:22 GMT-0500 Sat Mar 12 2022,false,42,17.598922,-83,-42.620754,168.4375,0,0,0,0,0,0,0,0,0,0,0,0,undefined,0,42,17.598689999999806,-83,-42.62692000000061,999,3.65,Off,0,1,0,0,-1,false,false
20:07:22 GMT-0500 Sat Mar 12 2022,false,42,17.598919,-83,-42.620826,168.4375,0,0,0,0,0,0,0,0,0,0,0,0,undefined,0,42,17.598699999999553,-83,-42.6269599999996,999,1.55,Off,0,1,0,0,-1,false,false
20:07:23 GMT-0500 Sat Mar 12 2022,false,42,17.598917,-83,-42.620897,168.4375,0,0,0,0,0,0,0,0,0,0,0,0,undefined,0,42,17.59871000000021,-83,-42.626979999999094,999,1.6666666666666667,Off,0,1,0,0,-1,false,false
20:07:23 GMT-0500 Sat Mar 12 2022,false,42,17.598914,-83,-42.620968,168.4375,0,0,0,0,0,0,0,0,0,0,0,0,undefined,0,42,17.598729999999705,-83,-42.627010000000155,999,6.95,Off,0,1,0,0,-1,false,false
20:07:24 GMT-0500 Sat Mar 12 2022,false,42,17.598912,-83,-42.621038,168.4375,0,0,0,0,0,0,0,0,0,0,0,0,undefined,0,42,17.598729999999705,-83,-42.62702999999965,999,3.6666666666666665,Off,0,1,0,0,-1,false,false
20:07:24 GMT-0500 Sat Mar 12 2022,false,42,17.598911,-83,-42.621094,168.4375,0,0,0,0,0,0,0,0,0,0,0,0,undefined,0,42,17.59874000000036,-83,-42.6270399999994,999,1.4833333333333334,Off,0,1,0,0,-1,false,false
20:07:25 GMT-0500 Sat Mar 12 2022,false,42,17.598909,-83,-42.621163,168.4375,0,0,0,0,0,0,0,0,0,0,0,0,undefined,0,42,17.59875000000011,-83,-42.627049999999144,999,1.0833333333333333,Off,0,1,0,0,-1,false,false
20:07:25 GMT-0500 Sat Mar 12 2022,false,42,17.598907,-83,-42.621231,168.4375,0,0,0,0,0,0,0,0,0,0,0,0,undefined,0,42,17.598769999999604,-83,-42.627080000000205,999,1.9666666666666666,Off,0,1,0,0,-1,false,false
20:07:26 GMT-0500 Sat Mar 12 2022,false,42,17.598905,-83,-42.621299,168.4375,0,0,0,0,0,0,0,0,0,0,0,0,undefined,0,42,17.59878000000026,-83,-42.6270999999997,999,1.5833333333333333,Off,0,1,0,0,-1,false,false
20:07:26 GMT-0500 Sat Mar 12 2022,false,42,17.598904,-83,-42.621367,168.4375,0,0,0,0,0,0,0,0,0,0,0,0,undefined,0,42,17.598790000000008,-83,-42.62713000000076,999,1.2,Off,0,1,0,0,-1,false,false
20:07:27 GMT-0500 Sat Mar 12 2022,false,42,17.598903,-83,-42.62142,168.4375,0,0,0,0,0,0,0,0,0,0,0,0,undefined,0,42,17.598799999999756,-83,-42.62716,999,1.7166666666666666,Off,0,1,0,0,-1,false,false
20:07:27 GMT-0500 Sat Mar 12 2022,false,42,17.598902,-83,-42.621487,168.4375,0,0,0,0,0,0,0,0,0,0,0,0,undefined,0,42,17.59882000000016,-83,-42.6271799999995,999,3.183333333333333,Off,0,1,0,0,-1,false,false
20:07:28 GMT-0500 Sat Mar 12 2022,false,42,17.598901,-83,-42.621553,168.4375,0,0,0,0,0,0,0,0,0,0,0,0,undefined,0,42,17.598829999999907,-83,-42.62720000000081,999,1.6333333333333333,Off,0,1,0,0,-1,false,false
20:07:28 GMT-0500 Sat Mar 12 2022,false,42,17.5989,-83,-42.621618,168.4375,0,0,0,0,0,0,0,0,0,0,0,0,undefined,0,42,17.598839999999655,-83,-42.62722000000031,999,0.6666666666666666,Off,0,1,0,0,-1,false,false
20:07:29 GMT-0500 Sat Mar 12 2022,false,42,17.5989,-83,-42.621683,168.4375,0,0,0,0,0,0,0,0,0,0,0,0,undefined,0,42,17.59885000000031,-83,-42.6272399999998,999,2.433333333333333,Off,0,1,0,0,-1,false,false
20:07:29 GMT-0500 Sat Mar 12 2022,false,42,17.598899,-83,-42.621735,168.4375,0,0,0,0,0,0,0,0,0,0,0,0,undefined,0,42,17.59885000000031,-83,-42.62724999999955,999,0.5333333333333333,Off,0,1,0,0,-1,false,false
20:07:30 GMT-0500 Sat Mar 12 2022,false,42,17.598899,-83,-42.621799,168.4375,0,0,0,0,0,0,0,0,0,0,0,0,undefined,0,42,17.59885000000031,-83,-42.627259999999296,999,0.8833333333333333,Off,0,1,0,0,-1,false,false
20:07:30 GMT-0500 Sat Mar 12 2022,false,42,17.598898,-83,-42.621862,168.4375,0,0,0,0,0,0,0,0,0,0,0,0,undefined,0,42,17.59885000000031,-83,-42.62728000000061,999,0.25,Off,0,1,0,0,-1,false,false
20:07:31 GMT-0500 Sat Mar 12 2022,false,42,17.598898,-83,-42.621925,168.4375,0,0,0,0,0,0,0,0,0,0,0,0,undefined,0,42,17.59886000000006,-83,-42.62728000000061,999,2.066666666666667,Off,0,1,0,0,-1,false,false
20:07:31 GMT-0500 Sat Mar 12 2022,false,42,17.598897,-83,-42.621987,168.4375,0,0,0,0,0,0,0,0,0,0,0,0,undefined,0,42,17.59886000000006,-83,-42.62729000000036,999,2.316666666666667,Off,0,1,0,0,-1,false,false
20:07:32 GMT-0500 Sat Mar 12 2022,false,42,17.598897,-83,-42.622036,168.4375,0,0,0,0,0,0,0,0,0,0,0,0,undefined,0,42,17.598869999999806,-83,-42.627300000000105,999,3.3833333333333333,Off,0,1,0,0,-1,false,false
20:07:32 GMT-0500 Sat Mar 12 2022,false,42,17.598897,-83,-42.622097,168.4375,0,0,0,0,0,0,0,0,0,0,0,0,undefined,0,42,17.598869999999806,-83,-42.62730999999985,999,1.8,Off,0,1,0,0,-1,false,false
20:07:33 GMT-0500 Sat Mar 12 2022,false,42,17.598896,-83,-42.622157,168.4375,0,0,0,0,0,0,0,0,0,0,0,0,undefined,0,42,17.598879999999554,-83,-42.627339999999094,999,1.3333333333333333,Off,0,1,0,0,-1,false,false
20:07:33 GMT-0500 Sat Mar 12 2022,false,42,17.598896,-83,-42.622217,168.4375,0,0,0,0,0,0,0,0,0,0,0,0,undefined,0,42,17.59889000000021,-83,-42.627370000000155,999,1.95,Off,0,1,0,0,-1,false,false
20:07:34 GMT-0500 Sat Mar 12 2022,false,42,17.598896,-83,-42.622277,168.4375,0,0,0,0,0,0,0,0,0,0,0,0,undefined,0,42,17.598909999999705,-83,-42.627409999999145,999,1.3,Off,0,1,0,0,-1,false,false
20:07:34 GMT-0500 Sat Mar 12 2022,false,42,17.598896,-83,-42.622336,168.4375,0,0,0,0,0,0,0,0,0,0,0,0,undefined,0,42,17.598909999999705,-83,-42.62744999999995,999,1.8666666666666667,Off,0,1,0,0,-1,false,false
20:07:35 GMT-0500 Sat Mar 12 2022,false,42,17.598897,-83,-42.622384,168.4375,0,0,0,0,0,0,0,0,0,0,0,0,undefined,0,42,17.598920000000362,-83,-42.62746999999945,999,1.5,Off,0,1,0,0,-1,false,false
20:07:35 GMT-0500 Sat Mar 12 2022,false,42,17.598897,-83,-42.622443,168.4375,0,0,0,0,0,0,0,0,0,0,0,0,undefined,0,42,17.598920000000362,-83,-42.62749000000076,999,2.0166666666666666,Off,0,1,0,0,-1,false,false
20:07:36 GMT-0500 Sat Mar 12 2022,false,42,17.598897,-83,-42.622501,168.4375,0,0,0,0,0,0,0,0,0,0,0,0,undefined,0,42,17.59893000000011,-83,-42.62751000000026,999,1.8166666666666667,Off,0,1,0,0,-1,false,false
20:07:36 GMT-0500 Sat Mar 12 2022,false,42,17.598898,-83,-42.622547,168.4375,0,0,0,0,0,0,0,0,0,0,0,0,undefined,0,42,17.59893000000011,-83,-42.62752999999975,999,0.6333333333333333,Off,0,1,0,0,-1,false,false
20:07:37 GMT-0500 Sat Mar 12 2022,false,42,17.598898,-83,-42.622616,168.4375,0,0,0,0,0,0,0,0,0,0,0,0,undefined,0,42,17.598939999999857,-83,-42.6275399999995,999,2.8333333333333335,Off,0,1,0,0,-1,false,false
20:07:37 GMT-0500 Sat Mar 12 2022,false,42,17.598899,-83,-42.622662,168.4375,0,0,0,0,0,0,0,0,0,0,0,0,undefined,0,42,17.598949999999604,-83,-42.62756000000081,999,3.6333333333333333,Off,0,1,0,0,-1,false,false
20:07:38 GMT-0500 Sat Mar 12 2022,false,42,17.598899,-83,-42.622718,168.4375,0,0,0,0,0,0,0,0,0,0,0,0,undefined,0,42,17.59896000000026,-83,-42.62757000000056,999,2.9,Off,0,1,0,0,-1,false,false
20:07:38 GMT-0500 Sat Mar 12 2022,false,42,17.5989,-83,-42.622763,168.4375,0,0,0,0,0,0,0,0,0,0,0,0,undefined,0,42,17.59896000000026,-83,-42.62760999999955,999,5.8,Off,0,1,0,0,-1,false,false
20:07:39 GMT-0500 Sat Mar 12 2022,false,42,17.598901,-83,-42.62283,168.4375,0,0,0,0,0,0,0,0,0,0,0,0,undefined,0,42,17.59897000000001,-83,-42.62764000000061,999,1.8166666666666667,Off,0,1,0,0,-1,false,false
20:07:39 GMT-0500 Sat Mar 12 2022,false,42,17.598901,-83,-42.622875,168.4375,0,0,0,0,0,0,0,0,0,0,0,0,undefined,0,42,17.598979999999756,-83,-42.6276799999996,999,0.8,Off,0,1,0,0,-1,false,false
20:07:40 GMT-0500 Sat Mar 12 2022,false,42,17.598902,-83,-42.622931,168.4375,0,0,0,0,0,0,0,0,0,0,0,0,undefined,0,42,17.598990000000413,-83,-42.627699999999095,999,2.966666666666667,Off,0,1,0,0,-1,false,false
20:07:40 GMT-0500 Sat Mar 12 2022,false,42,17.598903,-83,-42.622986,168.4375,0,0,0,0,0,0,0,0,0,0,0,0,undefined,0,42,17.59900000000016,-83,-42.62772000000041,999,1.3833333333333333,Off,0,1,0,0,-1,false,false
20:07:41 GMT-0500 Sat Mar 12 2022,false,42,17.598905,-83,-42.623041,168.4375,0,0,0,0,0,0,0,0,0,0,0,0,undefined,0,42,17.599009999999907,-83,-42.6277399999999,999,2.5,Off,0,1,0,0,-1,false,false
20:07:41 GMT-0500 Sat Mar 12 2022,false,42,17.598906,-83,-42.623095,168.4375,0,0,0,0,0,0,0,0,0,0,0,0,undefined,0,42,17.599009999999907,-83,-42.6277599999994,999,0.9,Off,0,1,0,0,-1,false,false
20:07:42 GMT-0500 Sat Mar 12 2022,false,42,17.598907,-83,-42.623138,168.4375,0,0,0,0,0,0,0,0,0,0,0,0,undefined,0,42,17.599019999999655,-83,-42.627769999999146,999,2.0833333333333335,Off,0,1,0,0,-1,false,false
20:07:42 GMT-0500 Sat Mar 12 2022,false,42,17.598908,-83,-42.623191,168.4375,0,0,0,0,0,0,0,0,0,0,0,0,undefined,0,42,17.59903000000031,-83,-42.62778000000071,999,1.15,Off,0,1,0,0,-1,false,false
20:07:43 GMT-0500 Sat Mar 12 2022,false,42,17.598909,-83,-42.623244,168.4375,0,0,0,0,0,0,0,0,0,0,0,0,undefined,0,42,17.59903000000031,-83,-42.62780000000021,999,1.8333333333333333,Off,0,1,0,0,-1,false,false
20:07:43 GMT-0500 Sat Mar 12 2022,false,42,17.598911,-83,-42.623297,168.4375,0,0,0,0,0,0,0,0,0,0,0,0,undefined,0,42,17.599049999999806,-83,-42.6278199999997,999,4.183333333333334,Off,0,1,0,0,-1,false,false
20:07:44 GMT-0500 Sat Mar 12 2022,false,42,17.598913,-83,-42.623349,168.4375,0,0,0,0,0,0,0,0,0,0,0,0,undefined,0,42,17.599049999999806,-83,-42.62785000000076,999,1.7166666666666666,Off,0,1,0,0,-1,false,false
20:07:44 GMT-0500 Sat Mar 12 2022,false,42,17.598914,-83,-42.623401,168.4375,0,0,0,0,0,0,0,0,0,0,0,0,undefined,0,42,17.599059999999554,-83,-42.627880000000005,999,2.966666666666667,Off,0,1,0,0,-1,false,false
20:07:45 GMT-0500 Sat Mar 12 2022,false,42,17.598915,-83,-42.623443,168.4375,0,0,0,0,0,0,0,0,0,0,0,0,undefined,0,42,17.599059999999554,-83,-42.62790999999925,999,1.9,Off,0,1,0,0,-1,false,false
20:07:45 GMT-0500 Sat Mar 12 2022,false,42,17.598917,-83,-42.623494,168.4375,0,0,0,0,0,0,0,0,0,0,0,0,undefined,0,42,17.59907000000021,-83,-42.62794000000031,999,3.05,Off,0,1,0,0,-1,false,false
20:07:46 GMT-0500 Sat Mar 12 2022,false,42,17.598919,-83,-42.623546,168.4375,0,0,0,0,0,0,0,0,0,0,0,0,undefined,0,42,17.599079999999958,-83,-42.6279599999998,999,0.5333333333333333,Off,0,1,0,0,-1,false,false
20:07:46 GMT-0500 Sat Mar 12 2022,false,42,17.598921,-83,-42.623597,168.4375,0,0,0,0,0,0,0,0,0,0,0,0,undefined,0,42,17.599079999999958,-83,-42.6279799999993,999,1.65,Off,0,1,0,0,-1,false,false
20:07:47 GMT-0500 Sat Mar 12 2022,false,42,17.598923,-83,-42.623647,168.4375,0,0,0,0,0,0,0,0,0,0,0,0,undefined,0,42,17.599089999999705,-83,-42.62800000000061,999,1.15,Off,0,1,0,0,-1,false,false
20:07:47 GMT-0500 Sat Mar 12 2022,false,42,17.598924,-83,-42.623687,168.4375,0,0,0,0,0,0,0,0,0,0,0,0,undefined,0,42,17.599089999999705,-83,-42.628020000000106,999,0.8333333333333334,Off,0,1,0,0,-1,false,false
20:07:48 GMT-0500 Sat Mar 12 2022,false,42,17.598926,-83,-42.623737,168.4375,0,0,0,0,0,0,0,0,0,0,0,0,undefined,0,42,17.599100000000362,-83,-42.6280399999996,999,1.4333333333333333,Off,0,1,0,0,-1,false,false
20:07:48 GMT-0500 Sat Mar 12 2022,false,42,17.598928,-83,-42.623787,167.75,0,0,0,0,0,0,0,0,0,0,0,0,undefined,0,42,17.599100000000362,-83,-42.62804999999935,999,2.183333333333333,Off,0,1,0,0,-1,false,false
20:07:49 GMT-0500 Sat Mar 12 2022,false,42,17.598933,-83,-42.623837,167.9375,0,0,0,0,0,0,0,0,0,0,0,0,undefined,0,42,17.59911000000011,-83,-42.62807000000066,999,1.0166666666666666,Off,0,1,0,0,-1,false,false
20:07:49 GMT-0500 Sat Mar 12 2022,false,42,17.598935,-83,-42.623876,167.9375,0,0,0,0,0,0,0,0,0,0,0,0,undefined,0,42,17.59911000000011,-83,-42.62809000000016,999,2.5166666666666666,Off,0,1,0,0,-1,false,false
20:07:50 GMT-0500 Sat Mar 12 2022,false,42,17.598937,-83,-42.623925,167.9375,0,0,0,0,0,0,0,0,0,0,0,0,undefined,0,42,17.59911000000011,-83,-42.628099999999904,999,1.4666666666666666,Off,0,1,0,0,-1,false,false
20:07:50 GMT-0500 Sat Mar 12 2022,false,42,17.598939,-83,-42.623973,167.9375,0,0,0,0,0,0,0,0,0,0,0,0,undefined,0,42,17.59911000000011,-83,-42.62810999999965,999,1.8166666666666667,Off,0,1,0,0,-1,false,false
20:07:51 GMT-0500 Sat Mar 12 2022,false,42,17.598954,-83,-42.624025,163.6875,0,0,0,0,0,0,0,0,0,0,0,0,undefined,0,42,17.599119999999857,-83,-42.6281199999994,999,1.25,Off,0,1,0,0,-1,false,false
20:07:51 GMT-0500 Sat Mar 12 2022,false,42,17.598979,-83,-42.624084,144.4375,0,0,0,0,0,0,0,0,0,0,0,0,undefined,0,42,17.599119999999857,-83,-42.628129999999146,999,2.066666666666667,Off,0,1,0,0,-1,false,false
20:07:52 GMT-0500 Sat Mar 12 2022,false,42,17.59898,-83,-42.624121,144.5,0,0,0,0,0,0,0,0,0,0,0,0,undefined,0,42,17.599119999999857,-83,-42.62816000000021,999,2.65,Off,0,1,0,0,-1,false,false
20:07:52 GMT-0500 Sat Mar 12 2022,false,42,17.598981,-83,-42.624168,144.4375,0,0,0,0,0,0,0,0,0,0,0,0,undefined,0,42,17.599119999999857,-83,-42.62816000000021,999,0.9833333333333333,Off,0,1,0,0,-1,false,false
20:07:53 GMT-0500 Sat Mar 12 2022,false,42,17.598983,-83,-42.624214,144.6875,0,0,0,0,0,0,0,0,0,0,0,0,undefined,0,42,17.599119999999857,-83,-42.62816000000021,999,0.25,Off,0,1,0,0,-1,false,false
20:07:53 GMT-0500 Sat Mar 12 2022,false,42,17.598985,-83,-42.624259,144.875,0,0,0,0,0,0,0,0,0,0,0,0,undefined,0,42,17.599119999999857,-83,-42.62816000000021,999,1.85,Off,0,1,0,0,-1,false,false
20:07:54 GMT-0500 Sat Mar 12 2022,false,42,17.598986,-83,-42.624304,144.875,0,0,0,0,0,0,0,0,0,0,0,0,undefined,0,42,17.59911000000011,-83,-42.62816000000021,999,3.5,Off,0,1,0,0,-1,false,false
20:07:54 GMT-0500 Sat Mar 12 2022,false,42,17.598976,-83,-42.62433,149.5625,0,0,0,0,0,0,0,0,0,0,0,0,undefined,0,42,17.599100000000362,-83,-42.62810999999965,999,5.166666666666667,Off,0,1,0,0,-1,false,false
20:07:55 GMT-0500 Sat Mar 12 2022,false,42,17.598964,-83,-42.624362,145.5,0,0,0,0,0,0,0,0,0,0,0,0,undefined,0,42,17.59911000000011,-83,-42.628099999999904,999,2.1333333333333333,Off,0,1,0,0,-1,false,false
20:07:55 GMT-0500 Sat Mar 12 2022,false,42,17.598971,-83,-42.62441,145.25,0,0,0,0,0,0,0,0,0,0,0,0,undefined,0,42,17.599119999999857,-83,-42.62810999999965,999,1.1666666666666667,Off,0,1,0,0,-1,false,false
20:07:56 GMT-0500 Sat Mar 12 2022,false,42,17.598976,-83,-42.624455,151.8125,0,0,0,0,0,0,0,0,0,0,0,0,undefined,0,42,17.59914000000026,-83,-42.6281199999994,999,1.9333333333333333,Off,0,1,0,0,-1,false,false
20:07:56 GMT-0500 Sat Mar 12 2022,false,42,17.598982,-83,-42.624491,150.875,0,0,0,0,0,0,0,0,0,0,0,0,undefined,0,42,17.59914000000026,-83,-42.62810999999965,999,0.31666666666666665,Off,0,1,0,0,-1,false,false
20:07:57 GMT-0500 Sat Mar 12 2022,false,42,17.598982,-83,-42.624532,150.3125,0,0,0,0,0,0,0,0,0,0,0,0,undefined,0,42,17.59914000000026,-83,-42.6281199999994,999,0.9666666666666667,Off,0,1,0,0,-1,false,false
20:07:57 GMT-0500 Sat Mar 12 2022,false,42,17.598983,-83,-42.624572,150.3125,0,0,0,0,0,0,0,0,0,0,0,0,undefined,0,42,17.599129999999604,-83,-42.628129999999146,999,8.516666666666667,Off,0,1,0,0,-1,false,false
20:07:58 GMT-0500 Sat Mar 12 2022,false,42,17.598976,-83,-42.624606,150.625,0,0,0,0,0,0,0,0,0,0,0,0,undefined,0,42,17.599059999999554,-83,-42.62810999999965,262.22,20.05,Off,0,1,0,0,-1,false,false
20:07:58 GMT-0500 Sat Mar 12 2022,false,42,17.598994,-83,-42.624661,150.75,0,0,0,0,0,0,0,0,0,0,0,0,undefined,0,42,17.59904000000006,-83,-42.62826999999925,270.35,32.3,Off,0,1,0,0,-1,false,false
20:07:59 GMT-0500 Sat Mar 12 2022,false,42,17.599005,-83,-42.624712,150,0,0,0,0,0,0,0,0,0,0,0,0,undefined,0,42,17.599019999999655,-83,-42.62844000000041,272.49,35.11666666666667,Off,0,1,0,0,-1,false,false
20:07:59 GMT-0500 Sat Mar 12 2022,false,42,17.599018,-83,-42.624757,149.25,0,0,0,0,0,0,0,0,0,0,0,0,undefined,0,42,17.59900000000016,-83,-42.62860999999975,272.03,38.016666666666666,Off,0,1,0,0,-1,false,false
20:08:00 GMT-0500 Sat Mar 12 2022,false,42,17.599018,-83,-42.624804,148.625,0,0,0,0,0,0,0,0,0,0,0,0,undefined,0,42,17.59900000000016,-83,-42.6289199999992,266.25,46.733333333333334,Off,0,1,0,0,-1,false,false
20:08:00 GMT-0500 Sat Mar 12 2022,false,42,17.599022,-83,-42.624856,147.1875,0,0,0,0,0,0,0,0,0,0,0,0,undefined,0,42,17.59907000000021,-83,-42.629150000000664,289.45,46.2,Off,0,1,0,0,-1,false,false
20:08:01 GMT-0500 Sat Mar 12 2022,false,42,17.599023,-83,-42.624907,146.625,0,0,0,0,0,0,0,0,0,0,0,0,undefined,0,42,17.599079999999958,-83,-42.62939000000006,268.68,37.5,Off,0,1,0,0,-1,false,false
20:08:01 GMT-0500 Sat Mar 12 2022,false,42,17.599023,-83,-42.62496,146.3125,0,0,0,0,0,0,0,0,0,0,0,0,undefined,0,42,17.59911000000011,-83,-42.629619999999704,286.76,43.18333333333333,Off,0,1,0,0,-1,false,false
20:08:02 GMT-0500 Sat Mar 12 2022,false,42,17.599024,-83,-42.625004,146.3125,0,0,0,0,0,0,0,0,0,0,0,0,undefined,0,42,17.599089999999705,-83,-42.62973000000056,264.02,22.716666666666665,Off,0,1,0,0,-1,false,false
20:08:02 GMT-0500 Sat Mar 12 2022,false,42,17.599025,-83,-42.625058,146.3125,0,0,0,0,0,0,0,0,0,0,0,0,undefined,0,42,17.59915000000001,-83,-42.630010000000766,999,2.0833333333333335,Off,0,1,0,0,-1,false,false
20:08:03 GMT-0500 Sat Mar 12 2022,false,42,17.599026,-83,-42.625115,146.3125,0,0,0,0,0,0,0,0,0,0,0,0,undefined,0,42,17.599159999999756,-83,-42.630010000000766,999,3.3,Off,0,1,0,0,-1,false,false
20:08:03 GMT-0500 Sat Mar 12 2022,false,42,17.599028,-83,-42.625171,146.3125,0,0,0,0,0,0,0,0,0,0,0,0,undefined,0,42,17.599170000000413,-83,-42.62998999999945,999,1.35,Off,0,1,0,0,-1,false,false
20:08:04 GMT-0500 Sat Mar 12 2022,false,42,17.59903,-83,-42.625227,146.3125,0,0,0,0,0,0,0,0,0,0,0,0,undefined,0,42,17.599189999999908,-83,-42.62996000000021,999,0.6333333333333333,Off,0,1,0,0,-1,false,false
20:08:04 GMT-0500 Sat Mar 12 2022,false,42,17.599032,-83,-42.625281,146.3125,0,0,0,0,0,0,0,0,0,0,0,0,undefined,0,42,17.599210000000312,-83,-42.62996000000021,999,1.7166666666666666,Off,0,1,0,0,-1,false,false
20:08:05 GMT-0500 Sat Mar 12 2022,false,42,17.599034,-83,-42.625324,146.3125,0,0,0,0,0,0,0,0,0,0,0,0,undefined,0,42,17.59922000000006,-83,-42.629940000000715,999,2.1333333333333333,Off,0,1,0,0,-1,false,false
20:08:05 GMT-0500 Sat Mar 12 2022,false,42,17.599036,-83,-42.625377,146.3125,0,0,0,0,0,0,0,0,0,0,0,0,undefined,0,42,17.599239999999554,-83,-42.6299199999994,999,0.9833333333333333,Off,0,1,0,0,-1,false,false
20:08:06 GMT-0500 Sat Mar 12 2022,false,42,17.599038,-83,-42.625429,146.3125,0,0,0,0,0,0,0,0,0,0,0,0,undefined,0,42,17.59925999999996,-83,-42.629909999999654,999,2.3833333333333333,Off,0,1,0,0,-1,false,false
20:08:06 GMT-0500 Sat Mar 12 2022,false,42,17.599041,-83,-42.625481,146.3125,0,0,0,0,0,0,0,0,0,0,0,0,undefined,0,42,17.599280000000363,-83,-42.629909999999654,999,2.6666666666666665,Off,0,1,0,0,-1,false,false
20:08:07 GMT-0500 Sat Mar 12 2022,false,42,17.599043,-83,-42.625522,146.3125,0,0,0,0,0,0,0,0,0,0,0,0,undefined,0,42,17.599299999999857,-83,-42.62989000000016,999,3.433333333333333,Off,0,1,0,0,-1,false,false
20:08:07 GMT-0500 Sat Mar 12 2022,false,42,17.599046,-83,-42.625572,146.3125,0,0,0,0,0,0,0,0,0,0,0,0,undefined,0,42,17.599309999999605,-83,-42.629870000000665,999,2.033333333333333,Off,0,1,0,0,-1,false,false
20:08:08 GMT-0500 Sat Mar 12 2022,false,42,17.599049,-83,-42.625621,146.3125,0,0,0,0,0,0,0,0,0,0,0,0,undefined,0,42,17.59933000000001,-83,-42.62984999999935,999,2.1333333333333333,Off,0,1,0,0,-1,false,false
20:08:08 GMT-0500 Sat Mar 12 2022,false,42,17.599053,-83,-42.62567,146.3125,0,0,0,0,0,0,0,0,0,0,0,0,undefined,0,42,17.599350000000413,-83,-42.629839999999604,999,2.3,Off,0,1,0,0,-1,false,false
20:08:09 GMT-0500 Sat Mar 12 2022,false,42,17.599056,-83,-42.625718,146.3125,0,0,0,0,0,0,0,0,0,0,0,0,undefined,0,42,17.59936000000016,-83,-42.62982000000011,999,3.45,Off,0,1,0,0,-1,false,false
20:08:09 GMT-0500 Sat Mar 12 2022,false,42,17.59906,-83,-42.625765,146.3125,0,0,0,0,0,0,0,0,0,0,0,0,undefined,0,42,17.599369999999908,-83,-42.629800000000614,999,2.65,Off,0,1,0,0,-1,false,false
20:08:10 GMT-0500 Sat Mar 12 2022,false,42,17.599063,-83,-42.625802,146.3125,0,0,0,0,0,0,0,0,0,0,0,0,undefined,0,42,17.599379999999655,-83,-42.6297799999993,999,1.4833333333333334,Off,0,1,0,0,-1,false,false
