Timestamp,Auton Enabled,Odom Degrees Lat,Odom Minutes Lat,Odom Degrees Lon,Odom Minutes Lon,Odom bearing,Odom speed,Accel X,Accel Y,Accel Z,Gyro X,Gyro Y,Gyro Z,Mag X,Mag Y,Mag Z,Roll,Pitch,Yaw,IMU Bearing,GPS Degrees Lat,GPS Minutes Lat,GPS Degrees Lon,GPS Minutes Lon,GPS Bearing,GPS Speed,Nav State,Waypoints Completed,Total Waypoints,Forward/Back,Left/Right,Dampen,Kill,Restart
19:45:05 GMT-0500 Sat Mar 12 2022,false,42,17.597785,-83,-42.603729,183.5,0,0,0,0,0,0,0,0,0,0,0,0,undefined,0,42,17.59613999999965,-83,-42.60363999999936,999,1.35,Off,0,1,0,0,-1,false,false
19:45:06 GMT-0500 Sat Mar 12 2022,false,42,17.597714,-83,-42.603724,183.5,0,0,0,0,0,0,0,0,0,0,0,0,undefined,0,42,17.596129999999903,-83,-42.60363999999936,999,0.36666666666666664,Off,0,1,0,0,-1,false,false
19:45:06 GMT-0500 Sat Mar 12 2022,false,42,17.597632,-83,-42.603718,183.5,0,0,0,0,0,0,0,0,0,0,0,0,undefined,0,42,17.596110000000408,-83,-42.60363999999936,999,0.9166666666666666,Off,0,1,0,0,-1,false,false
19:45:07 GMT-0500 Sat Mar 12 2022,false,42,17.597555,-83,-42.603713,183.5,0,0,0,0,0,0,0,0,0,0,0,0,undefined,0,42,17.596110000000408,-83,-42.60363999999936,999,1.1,Off,0,1,0,0,-1,false,false
19:45:07 GMT-0500 Sat Mar 12 2022,false,42,17.597484,-83,-42.603708,183.5,0,0,0,0,0,0,0,0,0,0,0,0,undefined,0,42,17.596090000000004,-83,-42.60363999999936,999,2.783333333333333,Off,0,1,0,0,-1,false,false
19:45:08 GMT-0500 Sat Mar 12 2022,false,42,17.597419,-83,-42.603703,183.5,0,0,0,0,0,0,0,0,0,0,0,0,undefined,0,42,17.596080000000256,-83,-42.60363999999936,999,2.0833333333333335,Off,0,1,0,0,-1,false,false
19:45:08 GMT-0500 Sat Mar 12 2022,false,42,17.597369,-83,-42.6037,183.5,0,0,0,0,0,0,0,0,0,0,0,0,undefined,0,42,17.5960699999996,-83,-42.60363999999936,999,1.25,Off,0,1,0,0,-1,false,false
19:45:09 GMT-0500 Sat Mar 12 2022,false,42,17.597311,-83,-42.603696,183.5,0,0,0,0,0,0,0,0,0,0,0,0,undefined,0,42,17.596050000000105,-83,-42.60363999999936,999,1.85,Off,0,1,0,0,-1,false,false
19:45:09 GMT-0500 Sat Mar 12 2022,false,42,17.597257,-83,-42.603692,183.5,0,0,0,0,0,0,0,0,0,0,0,0,undefined,0,42,17.596040000000357,-83,-42.60363999999936,999,1.6666666666666667,Off,0,1,0,0,-1,false,false
19:45:10 GMT-0500 Sat Mar 12 2022,false,42,17.597207,-83,-42.603689,183.5,0,0,0,0,0,0,0,0,0,0,0,0,undefined,0,42,17.5960299999997,-83,-42.60363999999936,999,0.65,Off,0,1,0,0,-1,false,false
19:45:10 GMT-0500 Sat Mar 12 2022,false,42,17.59716,-83,-42.603686,183.5,0,0,0,0,0,0,0,0,0,0,0,0,undefined,0,42,17.596019999999953,-83,-42.60364999999911,999,0.8,Off,0,1,0,0,-1,false,false
19:45:11 GMT-0500 Sat Mar 12 2022,false,42,17.597125,-83,-42.603684,183.5,0,0,0,0,0,0,0,0,0,0,0,0,undefined,0,42,17.596010000000206,-83,-42.60364999999911,999,1.25,Off,0,1,0,0,-1,false,false
19:45:11 GMT-0500 Sat Mar 12 2022,false,42,17.597083,-83,-42.603682,183.5,0,0,0,0,0,0,0,0,0,0,0,0,undefined,0,42,17.59599999999955,-83,-42.60366000000067,999,0.26666666666666666,Off,0,1,0,0,-1,false,false
19:45:12 GMT-0500 Sat Mar 12 2022,false,42,17.597043,-83,-42.60368,183.5,0,0,0,0,0,0,0,0,0,0,0,0,undefined,0,42,17.595980000000054,-83,-42.60366000000067,999,0.75,Off,0,1,0,0,-1,false,false
19:45:12 GMT-0500 Sat Mar 12 2022,false,42,17.597006,-83,-42.603678,183.5,0,0,0,0,0,0,0,0,0,0,0,0,undefined,0,42,17.595970000000307,-83,-42.60366000000067,999,1.25,Off,0,1,0,0,-1,false,false
19:45:13 GMT-0500 Sat Mar 12 2022,false,42,17.596978,-83,-42.603677,183.5,0,0,0,0,0,0,0,0,0,0,0,0,undefined,0,42,17.59595999999965,-83,-42.60364999999911,999,0.5666666666666667,Off,0,1,0,0,-1,false,false
19:45:13 GMT-0500 Sat Mar 12 2022,false,42,17.596944,-83,-42.603674,183.5,0,0,0,0,0,0,0,0,0,0,0,0,undefined,0,42,17.595940000000155,-83,-42.60364999999911,999,1.4166666666666667,Off,0,1,0,0,-1,false,false
19:45:14 GMT-0500 Sat Mar 12 2022,false,42,17.596912,-83,-42.603672,183.5,0,0,0,0,0,0,0,0,0,0,0,0,undefined,0,42,17.595930000000408,-83,-42.60364999999911,999,1.9333333333333333,Off,0,1,0,0,-1,false,false
19:45:14 GMT-0500 Sat Mar 12 2022,false,42,17.596881,-83,-42.603671,183.5,0,0,0,0,0,0,0,0,0,0,0,0,undefined,0,42,17.59591999999975,-83,-42.60364999999911,999,0.8333333333333334,Off,0,1,0,0,-1,false,false
19:45:15 GMT-0500 Sat Mar 12 2022,false,42,17.596852,-83,-42.603669,183.5,0,0,0,0,0,0,0,0,0,0,0,0,undefined,0,42,17.595910000000003,-83,-42.60366000000067,999,1.45,Off,0,1,0,0,-1,false,false
19:45:15 GMT-0500 Sat Mar 12 2022,false,42,17.59683,-83,-42.603668,183.5,0,0,0,0,0,0,0,0,0,0,0,0,undefined,0,42,17.5958899999996,-83,-42.60366000000067,999,1.35,Off,0,1,0,0,-1,false,false
19:45:16 GMT-0500 Sat Mar 12 2022,false,42,17.596804,-83,-42.603667,183.5,0,0,0,0,0,0,0,0,0,0,0,0,undefined,0,42,17.595879999999852,-83,-42.60367000000042,999,0.21666666666666667,Off,0,1,0,0,-1,false,false
19:45:16 GMT-0500 Sat Mar 12 2022,false,42,17.596778,-83,-42.603666,183.5,0,0,0,0,0,0,0,0,0,0,0,0,undefined,0,42,17.595870000000104,-83,-42.60368000000017,999,0.7333333333333333,Off,0,1,0,0,-1,false,false
19:45:17 GMT-0500 Sat Mar 12 2022,false,42,17.596754,-83,-42.603666,183.5,0,0,0,0,0,0,0,0,0,0,0,0,undefined,0,42,17.595860000000357,-83,-42.60368000000017,999,1.3166666666666667,Off,0,1,0,0,-1,false,false
19:45:17 GMT-0500 Sat Mar 12 2022,false,42,17.596731,-83,-42.603666,183.5,0,0,0,0,0,0,0,0,0,0,0,0,undefined,0,42,17.595839999999953,-83,-42.603689999999915,999,0.38333333333333336,Off,0,1,0,0,-1,false,false
19:45:18 GMT-0500 Sat Mar 12 2022,false,42,17.596713,-83,-42.603666,183.5,0,0,0,0,0,0,0,0,0,0,0,0,undefined,0,42,17.595830000000205,-83,-42.60369999999966,999,0.4166666666666667,Off,0,1,0,0,-1,false,false
19:45:18 GMT-0500 Sat Mar 12 2022,false,42,17.596692,-83,-42.603667,183.5,0,0,0,0,0,0,0,0,0,0,0,0,undefined,0,42,17.59581999999955,-83,-42.60370999999941,999,0.7666666666666667,Off,0,1,0,0,-1,false,false
19:45:19 GMT-0500 Sat Mar 12 2022,false,42,17.596671,-83,-42.603667,183.5,0,0,0,0,0,0,0,0,0,0,0,0,undefined,0,42,17.5958099999998,-83,-42.60371999999916,999,0.45,Off,0,1,0,0,-1,false,false
19:45:19 GMT-0500 Sat Mar 12 2022,false,42,17.596651,-83,-42.603668,183.5,0,0,0,0,0,0,0,0,0,0,0,0,undefined,0,42,17.5958099999998,-83,-42.60370999999941,999,0.8666666666666667,Off,0,1,0,0,-1,false,false
19:45:20 GMT-0500 Sat Mar 12 2022,false,42,17.596633,-83,-42.603668,183.5,0,0,0,0,0,0,0,0,0,0,0,0,undefined,0,42,17.595800000000054,-83,-42.60369999999966,999,1.25,Off,0,1,0,0,-1,false,false
19:45:20 GMT-0500 Sat Mar 12 2022,false,42,17.596619,-83,-42.603669,183.5,0,0,0,0,0,0,0,0,0,0,0,0,undefined,0,42,17.595790000000306,-83,-42.60369999999966,999,2.1666666666666665,Off,0,1,0,0,-1,false,false
19:45:21 GMT-0500 Sat Mar 12 2022,false,42,17.596602,-83,-42.603669,183.5,0,0,0,0,0,0,0,0,0,0,0,0,undefined,0,42,17.595790000000306,-83,-42.603689999999915,999,1,Off,0,1,0,0,-1,false,false
19:45:21 GMT-0500 Sat Mar 12 2022,false,42,17.596586,-83,-42.603669,183.5,0,0,0,0,0,0,0,0,0,0,0,0,undefined,0,42,17.59577999999965,-83,-42.603689999999915,999,0.8166666666666667,Off,0,1,0,0,-1,false,false
19:45:22 GMT-0500 Sat Mar 12 2022,false,42,17.59657,-83,-42.603668,183.5,0,0,0,0,0,0,0,0,0,0,0,0,undefined,0,42,17.595769999999902,-83,-42.603689999999915,999,1.5166666666666666,Off,0,1,0,0,-1,false,false
19:45:22 GMT-0500 Sat Mar 12 2022,false,42,17.596555,-83,-42.603668,183.5,0,0,0,0,0,0,0,0,0,0,0,0,undefined,0,42,17.595769999999902,-83,-42.60368000000017,999,1.3833333333333333,Off,0,1,0,0,-1,false,false
19:45:23 GMT-0500 Sat Mar 12 2022,false,42,17.596541,-83,-42.603667,183.5,0,0,0,0,0,0,0,0,0,0,0,0,undefined,0,42,17.595769999999902,-83,-42.60367000000042,999,0.38333333333333336,Off,0,1,0,0,-1,false,false
19:45:23 GMT-0500 Sat Mar 12 2022,false,42,17.596531,-83,-42.603667,183.5,0,0,0,0,0,0,0,0,0,0,0,0,undefined,0,42,17.595760000000155,-83,-42.60367000000042,999,1.0166666666666666,Off,0,1,0,0,-1,false,false
19:45:24 GMT-0500 Sat Mar 12 2022,false,42,17.596518,-83,-42.603666,183.5,0,0,0,0,0,0,0,0,0,0,0,0,undefined,0,42,17.595760000000155,-83,-42.60366000000067,999,1.0166666666666666,Off,0,1,0,0,-1,false,false
19:45:24 GMT-0500 Sat Mar 12 2022,false,42,17.596506,-83,-42.603665,183.5,0,0,0,0,0,0,0,0,0,0,0,0,undefined,0,42,17.595760000000155,-83,-42.60366000000067,999,3.283333333333333,Off,0,1,0,0,-1,false,false
19:45:25 GMT-0500 Sat Mar 12 2022,false,42,17.596494,-83,-42.603663,183.5,0,0,0,0,0,0,0,0,0,0,0,0,undefined,0,42,17.595760000000155,-83,-42.60364999999911,999,1.6,Off,0,1,0,0,-1,false,false
19:45:25 GMT-0500 Sat Mar 12 2022,false,42,17.596485,-83,-42.603662,183.5,0,0,0,0,0,0,0,0,0,0,0,0,undefined,0,42,17.595750000000407,-83,-42.60366000000067,999,2.0833333333333335,Off,0,1,0,0,-1,false,false
19:45:26 GMT-0500 Sat Mar 12 2022,false,42,17.596474,-83,-42.603661,183.5,0,0,0,0,0,0,0,0,0,0,0,0,undefined,0,42,17.59573999999975,-83,-42.60364999999911,999,0.8166666666666667,Off,0,1,0,0,-1,false,false
19:45:26 GMT-0500 Sat Mar 12 2022,false,42,17.596464,-83,-42.60366,183.5,0,0,0,0,0,0,0,0,0,0,0,0,undefined,0,42,17.59573999999975,-83,-42.60364999999911,999,0.5666666666666667,Off,0,1,0,0,-1,false,false
19:45:27 GMT-0500 Sat Mar 12 2022,false,42,17.596454,-83,-42.603659,183.5,0,0,0,0,0,0,0,0,0,0,0,0,undefined,0,42,17.59573999999975,-83,-42.60363999999936,999,0.8,Off,0,1,0,0,-1,false,false
19:45:27 GMT-0500 Sat Mar 12 2022,false,42,17.596445,-83,-42.603657,183.5,0,0,0,0,0,0,0,0,0,0,0,0,undefined,0,42,17.59573999999975,-83,-42.60363999999936,999,1.7,Off,0,1,0,0,-1,false,false
19:45:28 GMT-0500 Sat Mar 12 2022,false,42,17.596438,-83,-42.603656,183.5,0,0,0,0,0,0,0,0,0,0,0,0,undefined,0,42,17.59573999999975,-83,-42.60362999999961,999,1.2,Off,0,1,0,0,-1,false,false
19:45:28 GMT-0500 Sat Mar 12 2022,false,42,17.59643,-83,-42.603654,183.5,0,0,0,0,0,0,0,0,0,0,0,0,undefined,0,42,17.59573999999975,-83,-42.60362999999961,999,0.5,Off,0,1,0,0,-1,false,false
19:45:29 GMT-0500 Sat Mar 12 2022,false,42,17.596422,-83,-42.603653,183.5,0,0,0,0,0,0,0,0,0,0,0,0,undefined,0,42,17.595730000000003,-83,-42.60362999999961,999,0.48333333333333334,Off,0,1,0,0,-1,false,false
19:45:29 GMT-0500 Sat Mar 12 2022,false,42,17.596414,-83,-42.603651,183.5,0,0,0,0,0,0,0,0,0,0,0,0,undefined,0,42,17.595730000000003,-83,-42.60362999999961,999,0.9166666666666666,Off,0,1,0,0,-1,false,false
19:45:30 GMT-0500 Sat Mar 12 2022,false,42,17.596407,-83,-42.60365,183.5,0,0,0,0,0,0,0,0,0,0,0,0,undefined,0,42,17.595730000000003,-83,-42.60362999999961,999,1.6666666666666667,Off,0,1,0,0,-1,false,false
19:45:30 GMT-0500 Sat Mar 12 2022,false,42,17.5964,-83,-42.603648,183.5,0,0,0,0,0,0,0,0,0,0,0,0,undefined,0,42,17.595730000000003,-83,-42.60362999999961,999,1.6666666666666667,Off,0,1,0,0,-1,false,false
19:45:31 GMT-0500 Sat Mar 12 2022,false,42,17.596395,-83,-42.603647,183.5,0,0,0,0,0,0,0,0,0,0,0,0,undefined,0,42,17.595730000000003,-83,-42.60362999999961,999,1.6833333333333333,Off,0,1,0,0,-1,false,false
19:45:31 GMT-0500 Sat Mar 12 2022,false,42,17.596389,-83,-42.603646,183.5,0,0,0,0,0,0,0,0,0,0,0,0,undefined,0,42,17.595730000000003,-83,-42.60362999999961,999,0.7,Off,0,1,0,0,-1,false,false
19:45:32 GMT-0500 Sat Mar 12 2022,false,42,17.596383,-83,-42.603645,183.5,0,0,0,0,0,0,0,0,0,0,0,0,undefined,0,42,17.595730000000003,-83,-42.60362999999961,999,1.2833333333333334,Off,0,1,0,0,-1,false,false
19:45:32 GMT-0500 Sat Mar 12 2022,false,42,17.596378,-83,-42.603643,183.5,0,0,0,0,0,0,0,0,0,0,0,0,undefined,0,42,17.595730000000003,-83,-42.60362999999961,999,1.2333333333333334,Off,0,1,0,0,-1,false,false
19:45:33 GMT-0500 Sat Mar 12 2022,false,42,17.596372,-83,-42.603642,183.5,0,0,0,0,0,0,0,0,0,0,0,0,undefined,0,42,17.595730000000003,-83,-42.60362999999961,999,1.0666666666666667,Off,0,1,0,0,-1,false,false
19:45:33 GMT-0500 Sat Mar 12 2022,false,42,17.596369,-83,-42.603641,183.5,0,0,0,0,0,0,0,0,0,0,0,0,undefined,0,42,17.595730000000003,-83,-42.60362999999961,999,0.4,Off,0,1,0,0,-1,false,false
19:45:34 GMT-0500 Sat Mar 12 2022,false,42,17.596364,-83,-42.60364,183.5,0,0,0,0,0,0,0,0,0,0,0,0,undefined,0,42,17.595730000000003,-83,-42.60362999999961,999,2.1166666666666667,Off,0,1,0,0,-1,false,false
19:45:34 GMT-0500 Sat Mar 12 2022,false,42,17.59636,-83,-42.603638,183.5,0,0,0,0,0,0,0,0,0,0,0,0,undefined,0,42,17.595730000000003,-83,-42.603619999999864,999,0.5166666666666667,Off,0,1,0,0,-1,false,false
19:45:35 GMT-0500 Sat Mar 12 2022,false,42,17.596356,-83,-42.603637,183.5,0,0,0,0,0,0,0,0,0,0,0,0,undefined,0,42,17.595730000000003,-83,-42.603619999999864,999,1,Off,0,1,0,0,-1,false,false
19:45:35 GMT-0500 Sat Mar 12 2022,false,42,17.596353,-83,-42.603636,183.5,0,0,0,0,0,0,0,0,0,0,0,0,undefined,0,42,17.595730000000003,-83,-42.603619999999864,999,1.1833333333333333,Off,0,1,0,0,-1,false,false
19:45:36 GMT-0500 Sat Mar 12 2022,false,42,17.596349,-83,-42.603635,183.5,0,0,0,0,0,0,0,0,0,0,0,0,undefined,0,42,17.595730000000003,-83,-42.603619999999864,999,1.6833333333333333,Off,0,1,0,0,-1,false,false
19:45:36 GMT-0500 Sat Mar 12 2022,false,42,17.596346,-83,-42.603634,183.5,0,0,0,0,0,0,0,0,0,0,0,0,undefined,0,42,17.595730000000003,-83,-42.603619999999864,999,2.45,Off,0,1,0,0,-1,false,false
19:45:37 GMT-0500 Sat Mar 12 2022,false,42,17.596342,-83,-42.603632,183.5,0,0,0,0,0,0,0,0,0,0,0,0,undefined,0,42,17.595730000000003,-83,-42.603619999999864,999,0.11666666666666667,Off,0,1,0,0,-1,false,false
19:45:37 GMT-0500 Sat Mar 12 2022,false,42,17.596339,-83,-42.603631,183.5,0,0,0,0,0,0,0,0,0,0,0,0,undefined,0,42,17.595720000000256,-83,-42.603619999999864,999,2.0833333333333335,Off,0,1,0,0,-1,false,false
19:45:38 GMT-0500 Sat Mar 12 2022,false,42,17.596336,-83,-42.60363,183.5,0,0,0,0,0,0,0,0,0,0,0,0,undefined,0,42,17.595720000000256,-83,-42.603619999999864,999,1.7,Off,0,1,0,0,-1,false,false
19:45:38 GMT-0500 Sat Mar 12 2022,false,42,17.596334,-83,-42.603629,183.5,0,0,0,0,0,0,0,0,0,0,0,0,undefined,0,42,17.595720000000256,-83,-42.603619999999864,999,1.3,Off,0,1,0,0,-1,false,false
19:45:39 GMT-0500 Sat Mar 12 2022,false,42,17.596331,-83,-42.603628,183.5,0,0,0,0,0,0,0,0,0,0,0,0,undefined,0,42,17.595680000000357,-83,-42.60361000000012,999,0.55,Off,0,1,0,0,-1,false,false
19:45:39 GMT-0500 Sat Mar 12 2022,false,42,17.596328,-83,-42.603627,183.5,0,0,0,0,0,0,0,0,0,0,0,0,undefined,0,42,17.595680000000357,-83,-42.60361000000012,999,1.0666666666666667,Off,0,1,0,0,-1,false,false
19:45:40 GMT-0500 Sat Mar 12 2022,false,42,17.596325,-83,-42.603625,183.5,0,0,0,0,0,0,0,0,0,0,0,0,undefined,0,42,17.595680000000357,-83,-42.60361000000012,999,1.4833333333333334,Off,0,1,0,0,-1,false,false
19:45:40 GMT-0500 Sat Mar 12 2022,false,42,17.596322,-83,-42.603624,183.5,0,0,0,0,0,0,0,0,0,0,0,0,undefined,0,42,17.5956699999997,-83,-42.603619999999864,999,1.9166666666666667,Off,0,1,0,0,-1,false,false
19:45:41 GMT-0500 Sat Mar 12 2022,false,42,17.596319,-83,-42.603623,183.5,0,0,0,0,0,0,0,0,0,0,0,0,undefined,0,42,17.5956699999997,-83,-42.603619999999864,999,1.3166666666666667,Off,0,1,0,0,-1,false,false
19:45:41 GMT-0500 Sat Mar 12 2022,false,42,17.596317,-83,-42.603622,183.5,0,0,0,0,0,0,0,0,0,0,0,0,undefined,0,42,17.5956699999997,-83,-42.603619999999864,999,1.65,Off,0,1,0,0,-1,false,false
19:45:42 GMT-0500 Sat Mar 12 2022,false,42,17.596314,-83,-42.603621,183.5,0,0,0,0,0,0,0,0,0,0,0,0,undefined,0,42,17.5956699999997,-83,-42.60361000000012,999,2.183333333333333,Off,0,1,0,0,-1,false,false
19:45:42 GMT-0500 Sat Mar 12 2022,false,42,17.596312,-83,-42.60362,183.5,0,0,0,0,0,0,0,0,0,0,0,0,undefined,0,42,17.5956699999997,-83,-42.60361000000012,999,1.6666666666666667,Off,0,1,0,0,-1,false,false
19:45:43 GMT-0500 Sat Mar 12 2022,false,42,17.59631,-83,-42.603619,183.5,0,0,0,0,0,0,0,0,0,0,0,0,undefined,0,42,17.5956699999997,-83,-42.60361000000012,999,2.1,Off,0,1,0,0,-1,false,false
19:45:43 GMT-0500 Sat Mar 12 2022,false,42,17.596308,-83,-42.603618,183.5,0,0,0,0,0,0,0,0,0,0,0,0,undefined,0,42,17.5956699999997,-83,-42.60361000000012,999,0.8333333333333334,Off,0,1,0,0,-1,false,false
19:45:44 GMT-0500 Sat Mar 12 2022,false,42,17.596306,-83,-42.603617,183.5,0,0,0,0,0,0,0,0,0,0,0,0,undefined,0,42,17.5956699999997,-83,-42.60361000000012,999,0.9833333333333333,Off,0,1,0,0,-1,false,false
19:45:44 GMT-0500 Sat Mar 12 2022,false,42,17.596305,-83,-42.603616,183.5,0,0,0,0,0,0,0,0,0,0,0,0,undefined,0,42,17.5956699999997,-83,-42.60360000000037,999,1.9666666666666666,Off,0,1,0,0,-1,false,false
19:45:45 GMT-0500 Sat Mar 12 2022,false,42,17.596303,-83,-42.603615,183.5,0,0,0,0,0,0,0,0,0,0,0,0,undefined,0,42,17.595659999999953,-83,-42.60360000000037,999,0.55,Off,0,1,0,0,-1,false,false
19:45:45 GMT-0500 Sat Mar 12 2022,false,42,17.596301,-83,-42.603614,183.5,0,0,0,0,0,0,0,0,0,0,0,0,undefined,0,42,17.595659999999953,-83,-42.60360000000037,999,0.8833333333333333,Off,0,1,0,0,-1,false,false
19:45:46 GMT-0500 Sat Mar 12 2022,false,42,17.5963,-83,-42.603613,183.5,0,0,0,0,0,0,0,0,0,0,0,0,undefined,0,42,17.595659999999953,-83,-42.60360000000037,999,0.4666666666666667,Off,0,1,0,0,-1,false,false
19:45:46 GMT-0500 Sat Mar 12 2022,false,42,17.596299,-83,-42.603612,183.5,0,0,0,0,0,0,0,0,0,0,0,0,undefined,0,42,17.5956699999997,-83,-42.60359000000062,999,0.8333333333333334,Off,0,1,0,0,-1,false,false
19:45:47 GMT-0500 Sat Mar 12 2022,false,42,17.596297,-83,-42.60361,183.5,0,0,0,0,0,0,0,0,0,0,0,0,undefined,0,42,17.5956699999997,-83,-42.60359000000062,999,2.85,Off,0,1,0,0,-1,false,false
19:45:47 GMT-0500 Sat Mar 12 2022,false,42,17.596296,-83,-42.603609,183.5,0,0,0,0,0,0,0,0,0,0,0,0,undefined,0,42,17.595659999999953,-83,-42.60359000000062,999,1.2,Off,0,1,0,0,-1,false,false
19:45:48 GMT-0500 Sat Mar 12 2022,false,42,17.596295,-83,-42.603608,183.5,0,0,0,0,0,0,0,0,0,0,0,0,undefined,0,42,17.595659999999953,-83,-42.60359000000062,999,1.4833333333333334,Off,0,1,0,0,-1,false,false
19:45:48 GMT-0500 Sat Mar 12 2022,false,42,17.596294,-83,-42.603606,183.5,0,0,0,0,0,0,0,0,0,0,0,0,undefined,0,42,17.5956699999997,-83,-42.60359000000062,999,1.3166666666666667,Off,0,1,0,0,-1,false,false
19:45:49 GMT-0500 Sat Mar 12 2022,false,42,17.596294,-83,-42.603605,183.5,0,0,0,0,0,0,0,0,0,0,0,0,undefined,0,42,17.5956699999997,-83,-42.603580000000875,999,2.2333333333333334,Off,0,1,0,0,-1,false,false
19:45:49 GMT-0500 Sat Mar 12 2022,false,42,17.596293,-83,-42.603604,183.5,0,0,0,0,0,0,0,0,0,0,0,0,undefined,0,42,17.5956699999997,-83,-42.603580000000875,999,2.6,Off,0,1,0,0,-1,false,false
19:45:50 GMT-0500 Sat Mar 12 2022,false,42,17.596293,-83,-42.603603,183.5,0,0,0,0,0,0,0,0,0,0,0,0,undefined,0,42,17.5956699999997,-83,-42.603580000000875,999,0.7333333333333333,Off,0,1,0,0,-1,false,false
19:45:50 GMT-0500 Sat Mar 12 2022,false,42,17.596292,-83,-42.603601,183.5,0,0,0,0,0,0,0,0,0,0,0,0,undefined,0,42,17.595680000000357,-83,-42.60356999999931,999,1,Off,0,1,0,0,-1,false,false
19:45:51 GMT-0500 Sat Mar 12 2022,false,42,17.596292,-83,-42.6036,183.5,0,0,0,0,0,0,0,0,0,0,0,0,undefined,0,42,17.595680000000357,-83,-42.60355999999956,999,2.4833333333333334,Off,0,1,0,0,-1,false,false
19:45:51 GMT-0500 Sat Mar 12 2022,false,42,17.596292,-83,-42.603598,183.5,0,0,0,0,0,0,0,0,0,0,0,0,undefined,0,42,17.595680000000357,-83,-42.60355999999956,999,0.43333333333333335,Off,0,1,0,0,-1,false,false
19:45:52 GMT-0500 Sat Mar 12 2022,false,42,17.596292,-83,-42.603597,183.5,0,0,0,0,0,0,0,0,0,0,0,0,undefined,0,42,17.595690000000104,-83,-42.603549999999814,999,2.0166666666666666,Off,0,1,0,0,-1,false,false
19:45:52 GMT-0500 Sat Mar 12 2022,false,42,17.596293,-83,-42.603595,183.5,0,0,0,0,0,0,0,0,0,0,0,0,undefined,0,42,17.595690000000104,-83,-42.603540000000066,999,2.3333333333333335,Off,0,1,0,0,-1,false,false
19:45:53 GMT-0500 Sat Mar 12 2022,false,42,17.596293,-83,-42.603593,183.5,0,0,0,0,0,0,0,0,0,0,0,0,undefined,0,42,17.595690000000104,-83,-42.603540000000066,999,0.36666666666666664,Off,0,1,0,0,-1,false,false
19:45:53 GMT-0500 Sat Mar 12 2022,false,42,17.596293,-83,-42.603591,183.5,0,0,0,0,0,0,0,0,0,0,0,0,undefined,0,42,17.595690000000104,-83,-42.60353000000032,999,0.6666666666666666,Off,0,1,0,0,-1,false,false
19:45:54 GMT-0500 Sat Mar 12 2022,false,42,17.596294,-83,-42.60359,183.5,0,0,0,0,0,0,0,0,0,0,0,0,undefined,0,42,17.595690000000104,-83,-42.60352000000057,999,0.31666666666666665,Off,0,1,0,0,-1,false,false
19:45:54 GMT-0500 Sat Mar 12 2022,false,42,17.596294,-83,-42.603587,183.5,0,0,0,0,0,0,0,0,0,0,0,0,undefined,0,42,17.595690000000104,-83,-42.60352000000057,999,0.8,Off,0,1,0,0,-1,false,false
19:45:55 GMT-0500 Sat Mar 12 2022,false,42,17.596295,-83,-42.603585,183.5,0,0,0,0,0,0,0,0,0,0,0,0,undefined,0,42,17.595690000000104,-83,-42.603510000000824,999,1.1833333333333333,Off,0,1,0,0,-1,false,false
19:45:55 GMT-0500 Sat Mar 12 2022,false,42,17.596296,-83,-42.603583,183.5,0,0,0,0,0,0,0,0,0,0,0,0,undefined,0,42,17.595690000000104,-83,-42.60349999999926,999,2.45,Off,0,1,0,0,-1,false,false
19:45:56 GMT-0500 Sat Mar 12 2022,false,42,17.596297,-83,-42.603581,183.5,0,0,0,0,0,0,0,0,0,0,0,0,undefined,0,42,17.595690000000104,-83,-42.60348999999951,999,1.2666666666666666,Off,0,1,0,0,-1,false,false
19:45:56 GMT-0500 Sat Mar 12 2022,false,42,17.596297,-83,-42.603579,183.5,0,0,0,0,0,0,0,0,0,0,0,0,undefined,0,42,17.59569999999985,-83,-42.60347999999976,999,1.4166666666666667,Off,0,1,0,0,-1,false,false
19:45:57 GMT-0500 Sat Mar 12 2022,false,42,17.596298,-83,-42.603576,183.5,0,0,0,0,0,0,0,0,0,0,0,0,undefined,0,42,17.59569999999985,-83,-42.603470000000016,999,2,Off,0,1,0,0,-1,false,false
19:45:57 GMT-0500 Sat Mar 12 2022,false,42,17.596298,-83,-42.603573,183.5,0,0,0,0,0,0,0,0,0,0,0,0,undefined,0,42,17.59569999999985,-83,-42.60346000000027,999,0.65,Off,0,1,0,0,-1,false,false
19:45:58 GMT-0500 Sat Mar 12 2022,false,42,17.596294,-83,-42.603571,183.5,0,0,0,0,0,0,0,0,0,0,0,0,undefined,0,42,17.59569999999985,-83,-42.60345000000052,999,0.43333333333333335,Off,0,1,0,0,-1,false,false
19:45:58 GMT-0500 Sat Mar 12 2022,false,42,17.596295,-83,-42.603568,183.5,0,0,0,0,0,0,0,0,0,0,0,0,undefined,0,42,17.59569999999985,-83,-42.603440000000774,999,1.5,Off,0,1,0,0,-1,false,false
19:45:59 GMT-0500 Sat Mar 12 2022,false,42,17.596296,-83,-42.603565,183.5,0,0,0,0,0,0,0,0,0,0,0,0,undefined,0,42,17.5957099999996,-83,-42.60342999999921,999,1.45,Off,0,1,0,0,-1,false,false
19:45:59 GMT-0500 Sat Mar 12 2022,false,42,17.596298,-83,-42.603562,183.5,0,0,0,0,0,0,0,0,0,0,0,0,undefined,0,42,17.5957099999996,-83,-42.60341999999946,999,2.55,Off,0,1,0,0,-1,false,false
19:46:00 GMT-0500 Sat Mar 12 2022,false,42,17.596299,-83,-42.603559,183.5,0,0,0,0,0,0,0,0,0,0,0,0,undefined,0,42,17.5957099999996,-83,-42.60340999999971,999,0.8666666666666667,Off,0,1,0,0,-1,false,false
19:46:00 GMT-0500 Sat Mar 12 2022,false,42,17.596301,-83,-42.603555,183.5,0,0,0,0,0,0,0,0,0,0,0,0,undefined,0,42,17.5957099999996,-83,-42.603399999999965,999,2.566666666666667,Off,0,1,0,0,-1,false,false
19:46:01 GMT-0500 Sat Mar 12 2022,false,42,17.596302,-83,-42.603552,183.5,0,0,0,0,0,0,0,0,0,0,0,0,undefined,0,42,17.5957099999996,-83,-42.603399999999965,999,1.4333333333333333,Off,0,1,0,0,-1,false,false
19:46:01 GMT-0500 Sat Mar 12 2022,false,42,17.596304,-83,-42.603548,183.5,0,0,0,0,0,0,0,0,0,0,0,0,undefined,0,42,17.5957099999996,-83,-42.60338000000047,999,1.0666666666666667,Off,0,1,0,0,-1,false,false
19:46:02 GMT-0500 Sat Mar 12 2022,false,42,17.596305,-83,-42.603545,183.5,0,0,0,0,0,0,0,0,0,0,0,0,undefined,0,42,17.595720000000256,-83,-42.60337000000072,999,1.5833333333333333,Off,0,1,0,0,-1,false,false
19:46:02 GMT-0500 Sat Mar 12 2022,false,42,17.596307,-83,-42.603541,183.5,0,0,0,0,0,0,0,0,0,0,0,0,undefined,0,42,17.595720000000256,-83,-42.60334999999941,999,1.6333333333333333,Off,0,1,0,0,-1,false,false
19:46:03 GMT-0500 Sat Mar 12 2022,false,42,17.596309,-83,-42.603537,183.5,0,0,0,0,0,0,0,0,0,0,0,0,undefined,0,42,17.595730000000003,-83,-42.60333999999966,999,0.31666666666666665,Off,0,1,0,0,-1,false,false
19:46:03 GMT-0500 Sat Mar 12 2022,false,42,17.596311,-83,-42.603533,183.5,0,0,0,0,0,0,0,0,0,0,0,0,undefined,0,42,17.595730000000003,-83,-42.60332000000017,999,1.35,Off,0,1,0,0,-1,false,false
19:46:04 GMT-0500 Sat Mar 12 2022,false,42,17.596313,-83,-42.603529,183.5,0,0,0,0,0,0,0,0,0,0,0,0,undefined,0,42,17.59573999999975,-83,-42.60331000000042,999,1.75,Off,0,1,0,0,-1,false,false
19:46:04 GMT-0500 Sat Mar 12 2022,false,42,17.596315,-83,-42.603524,183.5,0,0,0,0,0,0,0,0,0,0,0,0,undefined,0,42,17.59573999999975,-83,-42.603289999999106,999,1.9833333333333334,Off,0,1,0,0,-1,false,false
19:46:05 GMT-0500 Sat Mar 12 2022,false,42,17.596316,-83,-42.603521,183.5,0,0,0,0,0,0,0,0,0,0,0,0,undefined,0,42,17.59573999999975,-83,-42.60326999999961,999,0.4,Off,0,1,0,0,-1,false,false
19:46:05 GMT-0500 Sat Mar 12 2022,false,42,17.596319,-83,-42.603516,183.5,0,0,0,0,0,0,0,0,0,0,0,0,undefined,0,42,17.59573999999975,-83,-42.603259999999864,999,1.1166666666666667,Off,0,1,0,0,-1,false,false
19:46:06 GMT-0500 Sat Mar 12 2022,false,42,17.596321,-83,-42.603511,183.5,0,0,0,0,0,0,0,0,0,0,0,0,undefined,0,42,17.595750000000407,-83,-42.60324000000037,999,0.6666666666666666,Off,0,1,0,0,-1,false,false
19:46:06 GMT-0500 Sat Mar 12 2022,false,42,17.596323,-83,-42.603506,183.5,0,0,0,0,0,0,0,0,0,0,0,0,undefined,0,42,17.595760000000155,-83,-42.60323000000062,999,2.216666666666667,Off,0,1,0,0,-1,false,false
19:46:07 GMT-0500 Sat Mar 12 2022,false,42,17.596325,-83,-42.6035,183.5,0,0,0,0,0,0,0,0,0,0,0,0,undefined,0,42,17.595760000000155,-83,-42.60320999999931,999,2.55,Off,0,1,0,0,-1,false,false
19:46:07 GMT-0500 Sat Mar 12 2022,false,42,17.596327,-83,-42.603496,183.5,0,0,0,0,0,0,0,0,0,0,0,0,undefined,0,42,17.595760000000155,-83,-42.60319999999956,999,1.9666666666666666,Off,0,1,0,0,-1,false,false
19:46:08 GMT-0500 Sat Mar 12 2022,false,42,17.59633,-83,-42.603491,183.5,0,0,0,0,0,0,0,0,0,0,0,0,undefined,0,42,17.595769999999902,-83,-42.603180000000066,999,0.45,Off,0,1,0,0,-1,false,false
19:46:08 GMT-0500 Sat Mar 12 2022,false,42,17.596333,-83,-42.603485,183.5,0,0,0,0,0,0,0,0,0,0,0,0,undefined,0,42,17.595769999999902,-83,-42.60317000000032,999,1.3333333333333333,Off,0,1,0,0,-1,false,false
19:46:09 GMT-0500 Sat Mar 12 2022,false,42,17.596335,-83,-42.603479,183.5,0,0,0,0,0,0,0,0,0,0,0,0,undefined,0,42,17.595769999999902,-83,-42.60316000000057,999,1.0166666666666666,Off,0,1,0,0,-1,false,false
19:46:09 GMT-0500 Sat Mar 12 2022,false,42,17.595468,-83,-42.603546,183.5,0,0,0,0,0,0,0,0,0,0,0,0,undefined,0,42,17.595769999999902,-83,-42.603150000000824,999,0.26666666666666666,Off,0,1,0,0,-1,false,false
19:46:10 GMT-0500 Sat Mar 12 2022,false,42,17.59548,-83,-42.603539,183.5,0,0,0,0,0,0,0,0,0,0,0,0,undefined,0,42,17.59577999999965,-83,-42.60313999999926,999,0.7833333333333333,Off,0,1,0,0,-1,false,false
19:46:10 GMT-0500 Sat Mar 12 2022,false,42,17.595492,-83,-42.603534,183.5,0,0,0,0,0,0,0,0,0,0,0,0,undefined,0,42,17.59577999999965,-83,-42.60312999999951,999,1.7666666666666666,Off,0,1,0,0,-1,false,false
19:46:11 GMT-0500 Sat Mar 12 2022,false,42,17.595508,-83,-42.603527,183.5,0,0,0,0,0,0,0,0,0,0,0,0,undefined,0,42,17.59577999999965,-83,-42.603110000000015,999,1.4166666666666667,Off,0,1,0,0,-1,false,false
19:46:11 GMT-0500 Sat Mar 12 2022,false,42,17.595523,-83,-42.60352,183.5,0,0,0,0,0,0,0,0,0,0,0,0,undefined,0,42,17.59577999999965,-83,-42.603110000000015,999,0.25,Off,0,1,0,0,-1,false,false
19:46:12 GMT-0500 Sat Mar 12 2022,false,42,17.595537,-83,-42.603513,183.5,0,0,0,0,0,0,0,0,0,0,0,0,undefined,0,42,17.595790000000306,-83,-42.60309000000052,999,2.15,Off,0,1,0,0,-1,false,false
19:46:12 GMT-0500 Sat Mar 12 2022,false,42,17.595552,-83,-42.603506,183.5,0,0,0,0,0,0,0,0,0,0,0,0,undefined,0,42,17.595790000000306,-83,-42.60310000000027,999,0.6666666666666666,Off,0,1,0,0,-1,false,false
19:46:13 GMT-0500 Sat Mar 12 2022,false,42,17.595564,-83,-42.603501,183.5,0,0,0,0,0,0,0,0,0,0,0,0,undefined,0,42,17.59577999999965,-83,-42.60310000000027,999,1.3833333333333333,Off,0,1,0,0,-1,false,false
19:46:13 GMT-0500 Sat Mar 12 2022,false,42,17.595578,-83,-42.603494,183.5,0,0,0,0,0,0,0,0,0,0,0,0,undefined,0,42,17.59577999999965,-83,-42.603110000000015,999,1.9333333333333333,Off,0,1,0,0,-1,false,false
19:46:14 GMT-0500 Sat Mar 12 2022,false,42,17.595592,-83,-42.603487,183.5,0,0,0,0,0,0,0,0,0,0,0,0,undefined,0,42,17.595769999999902,-83,-42.603110000000015,999,0.2,Off,0,1,0,0,-1,false,false
19:46:14 GMT-0500 Sat Mar 12 2022,false,42,17.595605,-83,-42.603481,183.5,0,0,0,0,0,0,0,0,0,0,0,0,undefined,0,42,17.59577999999965,-83,-42.60311999999976,999,1.3333333333333333,Off,0,1,0,0,-1,false,false
19:46:15 GMT-0500 Sat Mar 12 2022,false,42,17.595619,-83,-42.603475,183.5,0,0,0,0,0,0,0,0,0,0,0,0,undefined,0,42,17.595769999999902,-83,-42.60311999999976,999,0.2,Off,0,1,0,0,-1,false,false
19:46:15 GMT-0500 Sat Mar 12 2022,false,42,17.595632,-83,-42.603469,183.5,0,0,0,0,0,0,0,0,0,0,0,0,undefined,0,42,17.595769999999902,-83,-42.60312999999951,999,1.6666666666666667,Off,0,1,0,0,-1,false,false
19:46:16 GMT-0500 Sat Mar 12 2022,false,42,17.595642,-83,-42.603465,183.5,0,0,0,0,0,0,0,0,0,0,0,0,undefined,0,42,17.595760000000155,-83,-42.60312999999951,999,2.0166666666666666,Off,0,1,0,0,-1,false,false
19:46:16 GMT-0500 Sat Mar 12 2022,false,42,17.595655,-83,-42.603459,183.5,0,0,0,0,0,0,0,0,0,0,0,0,undefined,0,42,17.595750000000407,-83,-42.60313999999926,999,1.8666666666666667,Off,0,1,0,0,-1,false,false
19:46:17 GMT-0500 Sat Mar 12 2022,false,42,17.595667,-83,-42.603454,183.5,0,0,0,0,0,0,0,0,0,0,0,0,undefined,0,42,17.595750000000407,-83,-42.603150000000824,999,0.8166666666666667,Off,0,1,0,0,-1,false,false
19:46:17 GMT-0500 Sat Mar 12 2022,false,42,17.595679,-83,-42.603449,183.5,0,0,0,0,0,0,0,0,0,0,0,0,undefined,0,42,17.595750000000407,-83,-42.603150000000824,999,0.8333333333333334,Off,0,1,0,0,-1,false,false
19:46:18 GMT-0500 Sat Mar 12 2022,false,42,17.595691,-83,-42.603444,183.5,0,0,0,0,0,0,0,0,0,0,0,0,undefined,0,42,17.595750000000407,-83,-42.603150000000824,999,0.8,Off,0,1,0,0,-1,false,false
19:46:18 GMT-0500 Sat Mar 12 2022,false,42,17.5957,-83,-42.60344,183.5,0,0,0,0,0,0,0,0,0,0,0,0,undefined,0,42,17.59573999999975,-83,-42.60313999999926,999,1.0666666666666667,Off,0,1,0,0,-1,false,false
19:46:19 GMT-0500 Sat Mar 12 2022,false,42,17.595712,-83,-42.603435,183.5,0,0,0,0,0,0,0,0,0,0,0,0,undefined,0,42,17.59573999999975,-83,-42.60313999999926,999,2.316666666666667,Off,0,1,0,0,-1,false,false
19:46:19 GMT-0500 Sat Mar 12 2022,false,42,17.595723,-83,-42.60343,183.5,0,0,0,0,0,0,0,0,0,0,0,0,undefined,0,42,17.595730000000003,-83,-42.603150000000824,999,0.7166666666666667,Off,0,1,0,0,-1,false,false
19:46:20 GMT-0500 Sat Mar 12 2022,false,42,17.595734,-83,-42.603425,183.5,0,0,0,0,0,0,0,0,0,0,0,0,undefined,0,42,17.595730000000003,-83,-42.603150000000824,999,0.85,Off,0,1,0,0,-1,false,false
19:46:20 GMT-0500 Sat Mar 12 2022,false,42,17.595745,-83,-42.60342,183.5,0,0,0,0,0,0,0,0,0,0,0,0,undefined,0,42,17.595730000000003,-83,-42.603150000000824,999,0.2833333333333333,Off,0,1,0,0,-1,false,false
19:46:21 GMT-0500 Sat Mar 12 2022,false,42,17.595754,-83,-42.603417,183.5,0,0,0,0,0,0,0,0,0,0,0,0,undefined,0,42,17.595730000000003,-83,-42.603150000000824,999,2.4166666666666665,Off,0,1,0,0,-1,false,false
19:46:21 GMT-0500 Sat Mar 12 2022,false,42,17.595765,-83,-42.603412,183.5,0,0,0,0,0,0,0,0,0,0,0,0,undefined,0,42,17.595730000000003,-83,-42.603150000000824,999,1.8333333333333333,Off,0,1,0,0,-1,false,false
19:46:22 GMT-0500 Sat Mar 12 2022,false,42,17.595775,-83,-42.603408,183.5,0,0,0,0,0,0,0,0,0,0,0,0,undefined,0,42,17.595730000000003,-83,-42.603150000000824,999,0.35,Off,0,1,0,0,-1,false,false
19:46:22 GMT-0500 Sat Mar 12 2022,false,42,17.595786,-83,-42.603403,183.5,0,0,0,0,0,0,0,0,0,0,0,0,undefined,0,42,17.595730000000003,-83,-42.60313999999926,999,1.6666666666666667,Off,0,1,0,0,-1,false,false
19:46:23 GMT-0500 Sat Mar 12 2022,false,42,17.595796,-83,-42.603399,183.5,0,0,0,0,0,0,0,0,0,0,0,0,undefined,0,42,17.595730000000003,-83,-42.60313999999926,999,0.26666666666666666,Off,0,1,0,0,-1,false,false
19:46:23 GMT-0500 Sat Mar 12 2022,false,42,17.595804,-83,-42.603395,183.5,0,0,0,0,0,0,0,0,0,0,0,0,undefined,0,42,17.59573999999975,-83,-42.60312999999951,999,0.45,Off,0,1,0,0,-1,false,false
19:46:24 GMT-0500 Sat Mar 12 2022,false,42,17.595814,-83,-42.603391,183.5,0,0,0,0,0,0,0,0,0,0,0,0,undefined,0,42,17.59573999999975,-83,-42.60312999999951,999,1.35,Off,0,1,0,0,-1,false,false
19:46:24 GMT-0500 Sat Mar 12 2022,false,42,17.595824,-83,-42.603386,183.5,0,0,0,0,0,0,0,0,0,0,0,0,undefined,0,42,17.59573999999975,-83,-42.60312999999951,999,1.05,Off,0,1,0,0,-1,false,false
19:46:25 GMT-0500 Sat Mar 12 2022,false,42,17.595834,-83,-42.603382,183.5,0,0,0,0,0,0,0,0,0,0,0,0,undefined,0,42,17.59573999999975,-83,-42.60311999999976,999,0.31666666666666665,Off,0,1,0,0,-1,false,false
19:46:25 GMT-0500 Sat Mar 12 2022,false,42,17.595844,-83,-42.603377,183.5,0,0,0,0,0,0,0,0,0,0,0,0,undefined,0,42,17.59573999999975,-83,-42.60311999999976,999,0.2833333333333333,Off,0,1,0,0,-1,false,false
19:46:26 GMT-0500 Sat Mar 12 2022,false,42,17.595851,-83,-42.603374,183.5,0,0,0,0,0,0,0,0,0,0,0,0,undefined,0,42,17.59573999999975,-83,-42.60311999999976,999,1.6666666666666667,Off,0,1,0,0,-1,false,false
19:46:26 GMT-0500 Sat Mar 12 2022,false,42,17.595861,-83,-42.60337,183.5,0,0,0,0,0,0,0,0,0,0,0,0,undefined,0,42,17.59573999999975,-83,-42.60311999999976,999,2.8333333333333335,Off,0,1,0,0,-1,false,false
19:46:27 GMT-0500 Sat Mar 12 2022,false,42,17.59587,-83,-42.603366,183.5,0,0,0,0,0,0,0,0,0,0,0,0,undefined,0,42,17.595730000000003,-83,-42.60312999999951,999,0.4,Off,0,1,0,0,-1,false,false
19:46:27 GMT-0500 Sat Mar 12 2022,false,42,17.595879,-83,-42.603362,183.5,0,0,0,0,0,0,0,0,0,0,0,0,undefined,0,42,17.595730000000003,-83,-42.60312999999951,999,1.5833333333333333,Off,0,1,0,0,-1,false,false
19:46:28 GMT-0500 Sat Mar 12 2022,false,42,17.595887,-83,-42.603358,183.5,0,0,0,0,0,0,0,0,0,0,0,0,undefined,0,42,17.595720000000256,-83,-42.60313999999926,999,1.8666666666666667,Off,0,1,0,0,-1,false,false
19:46:28 GMT-0500 Sat Mar 12 2022,false,42,17.595895,-83,-42.603355,183.5,0,0,0,0,0,0,0,0,0,0,0,0,undefined,0,42,17.595720000000256,-83,-42.60313999999926,999,1.75,Off,0,1,0,0,-1,false,false
19:46:29 GMT-0500 Sat Mar 12 2022,false,42,17.595904,-83,-42.603351,183.5,0,0,0,0,0,0,0,0,0,0,0,0,undefined,0,42,17.595720000000256,-83,-42.60313999999926,999,1.5166666666666666,Off,0,1,0,0,-1,false,false
19:46:29 GMT-0500 Sat Mar 12 2022,false,42,17.595913,-83,-42.603347,183.5,0,0,0,0,0,0,0,0,0,0,0,0,undefined,0,42,17.595720000000256,-83,-42.60312999999951,999,0.5166666666666667,Off,0,1,0,0,-1,false,false
19:46:30 GMT-0500 Sat Mar 12 2022,false,42,17.595921,-83,-42.603344,183.5,0,0,0,0,0,0,0,0,0,0,0,0,undefined,0,42,17.595720000000256,-83,-42.60312999999951,999,1.1666666666666667,Off,0,1,0,0,-1,false,false
19:46:30 GMT-0500 Sat Mar 12 2022,false,42,17.595929,-83,-42.60334,183.5,0,0,0,0,0,0,0,0,0,0,0,0,undefined,0,42,17.595720000000256,-83,-42.60312999999951,999,0.95,Off,0,1,0,0,-1,false,false
19:46:31 GMT-0500 Sat Mar 12 2022,false,42,17.595936,-83,-42.603337,183.5,0,0,0,0,0,0,0,0,0,0,0,0,undefined,0,42,17.595730000000003,-83,-42.60311999999976,999,1.15,Off,0,1,0,0,-1,false,false
19:46:31 GMT-0500 Sat Mar 12 2022,false,42,17.595944,-83,-42.603333,183.5,0,0,0,0,0,0,0,0,0,0,0,0,undefined,0,42,17.595720000000256,-83,-42.603110000000015,999,0.4166666666666667,Off,0,1,0,0,-1,false,false
19:46:32 GMT-0500 Sat Mar 12 2022,false,42,17.595953,-83,-42.603329,183.5,0,0,0,0,0,0,0,0,0,0,0,0,undefined,0,42,17.595730000000003,-83,-42.603110000000015,999,1.2,Off,0,1,0,0,-1,false,false
19:46:32 GMT-0500 Sat Mar 12 2022,false,42,17.595961,-83,-42.603325,183.5,0,0,0,0,0,0,0,0,0,0,0,0,undefined,0,42,17.595720000000256,-83,-42.60310000000027,999,0.8,Off,0,1,0,0,-1,false,false
19:46:33 GMT-0500 Sat Mar 12 2022,false,42,17.595969,-83,-42.603322,183.5,0,0,0,0,0,0,0,0,0,0,0,0,undefined,0,42,17.595720000000256,-83,-42.60309000000052,999,0.4,Off,0,1,0,0,-1,false,false
19:46:33 GMT-0500 Sat Mar 12 2022,false,42,17.595975,-83,-42.603318,183.5,0,0,0,0,0,0,0,0,0,0,0,0,undefined,0,42,17.595720000000256,-83,-42.60309000000052,999,1.3,Off,0,1,0,0,-1,false,false
19:46:34 GMT-0500 Sat Mar 12 2022,false,42,17.595983,-83,-42.603315,183.5,0,0,0,0,0,0,0,0,0,0,0,0,undefined,0,42,17.595720000000256,-83,-42.60309000000052,999,1.1666666666666667,Off,0,1,0,0,-1,false,false
19:46:34 GMT-0500 Sat Mar 12 2022,false,42,17.59599,-83,-42.603311,183.5,0,0,0,0,0,0,0,0,0,0,0,0,undefined,0,42,17.595720000000256,-83,-42.60308000000077,999,1.4166666666666667,Off,0,1,0,0,-1,false,false
19:46:35 GMT-0500 Sat Mar 12 2022,false,42,17.595998,-83,-42.603307,183.5,0,0,0,0,0,0,0,0,0,0,0,0,undefined,0,42,17.595720000000256,-83,-42.60306999999921,999,0.7166666666666667,Off,0,1,0,0,-1,false,false
19:46:35 GMT-0500 Sat Mar 12 2022,false,42,17.596005,-83,-42.603303,183.5,0,0,0,0,0,0,0,0,0,0,0,0,undefined,0,42,17.595720000000256,-83,-42.60305999999946,999,2.7666666666666666,Off,0,1,0,0,-1,false,false
19:46:36 GMT-0500 Sat Mar 12 2022,false,42,17.596012,-83,-42.603299,183.5,0,0,0,0,0,0,0,0,0,0,0,0,undefined,0,42,17.595720000000256,-83,-42.60305999999946,999,1.7166666666666666,Off,0,1,0,0,-1,false,false
19:46:36 GMT-0500 Sat Mar 12 2022,false,42,17.596018,-83,-42.603296,183.5,0,0,0,0,0,0,0,0,0,0,0,0,undefined,0,42,17.595720000000256,-83,-42.60304999999971,999,0.18333333333333332,Off,0,1,0,0,-1,false,false
19:46:37 GMT-0500 Sat Mar 12 2022,false,42,17.596026,-83,-42.603291,183.5,0,0,0,0,0,0,0,0,0,0,0,0,undefined,0,42,17.595720000000256,-83,-42.603039999999964,999,1.2833333333333334,Off,0,1,0,0,-1,false,false
19:46:37 GMT-0500 Sat Mar 12 2022,false,42,17.596033,-83,-42.603287,183.5,0,0,0,0,0,0,0,0,0,0,0,0,undefined,0,42,17.595720000000256,-83,-42.603039999999964,999,2.033333333333333,Off,0,1,0,0,-1,false,false
19:46:38 GMT-0500 Sat Mar 12 2022,false,42,17.59604,-83,-42.603283,183.5,0,0,0,0,0,0,0,0,0,0,0,0,undefined,0,42,17.595720000000256,-83,-42.60303000000022,999,3.216666666666667,Off,0,1,0,0,-1,false,false
19:46:38 GMT-0500 Sat Mar 12 2022,false,42,17.596045,-83,-42.60328,183.5,0,0,0,0,0,0,0,0,0,0,0,0,undefined,0,42,17.595720000000256,-83,-42.60302000000047,999,2.316666666666667,Off,0,1,0,0,-1,false,false
19:46:39 GMT-0500 Sat Mar 12 2022,false,42,17.596052,-83,-42.603276,183.5,0,0,0,0,0,0,0,0,0,0,0,0,undefined,0,42,17.595720000000256,-83,-42.60301000000072,999,4.7,Off,0,1,0,0,-1,false,false
19:46:39 GMT-0500 Sat Mar 12 2022,false,42,17.596059,-83,-42.603272,183.5,0,0,0,0,0,0,0,0,0,0,0,0,undefined,0,42,17.595720000000256,-83,-42.60301000000072,999,2.2,Off,0,1,0,0,-1,false,false
19:46:40 GMT-0500 Sat Mar 12 2022,false,42,17.596066,-83,-42.603267,183.5,0,0,0,0,0,0,0,0,0,0,0,0,undefined,0,42,17.595720000000256,-83,-42.60301000000072,999,1.5166666666666666,Off,0,1,0,0,-1,false,false
19:46:40 GMT-0500 Sat Mar 12 2022,false,42,17.596073,-83,-42.603263,183.5,0,0,0,0,0,0,0,0,0,0,0,0,undefined,0,42,17.5957099999996,-83,-42.60301000000072,999,3.8333333333333335,Off,0,1,0,0,-1,false,false
19:46:41 GMT-0500 Sat Mar 12 2022,false,42,17.596078,-83,-42.60326,183.5,0,0,0,0,0,0,0,0,0,0,0,0,undefined,0,42,17.595720000000256,-83,-42.602999999999156,999,2.6,Off,0,1,0,0,-1,false,false
19:46:41 GMT-0500 Sat Mar 12 2022,false,42,17.596084,-83,-42.603256,183.5,0,0,0,0,0,0,0,0,0,0,0,0,undefined,0,42,17.5957099999996,-83,-42.602999999999156,999,1.9666666666666666,Off,0,1,0,0,-1,false,false
19:46:42 GMT-0500 Sat Mar 12 2022,false,42,17.596091,-83,-42.603252,183.5,0,0,0,0,0,0,0,0,0,0,0,0,undefined,0,42,17.5957099999996,-83,-42.602999999999156,999,0.26666666666666666,Off,0,1,0,0,-1,false,false
19:46:42 GMT-0500 Sat Mar 12 2022,false,42,17.596097,-83,-42.603248,183.5,0,0,0,0,0,0,0,0,0,0,0,0,undefined,0,42,17.595720000000256,-83,-42.602999999999156,999,1.2333333333333334,Off,0,1,0,0,-1,false,false
19:46:43 GMT-0500 Sat Mar 12 2022,false,42,17.5954,-83,-42.603302,183.5,0,0,0,0,0,0,0,0,0,0,0,0,undefined,0,42,17.595720000000256,-83,-42.60298999999941,999,1.3333333333333333,Off,0,1,0,0,-1,false,false
19:46:43 GMT-0500 Sat Mar 12 2022,false,42,17.595237,-83,-42.603313,183.5,0,0,0,0,0,0,0,0,0,0,0,0,undefined,0,42,17.595720000000256,-83,-42.60297999999966,999,1.0333333333333334,Off,0,1,0,0,-1,false,false
19:46:44 GMT-0500 Sat Mar 12 2022,false,42,17.595251,-83,-42.603308,183.5,0,0,0,0,0,0,0,0,0,0,0,0,undefined,0,42,17.595720000000256,-83,-42.60297999999966,999,1.8333333333333333,Off,0,1,0,0,-1,false,false
19:46:44 GMT-0500 Sat Mar 12 2022,false,42,17.595267,-83,-42.603303,183.5,0,0,0,0,0,0,0,0,0,0,0,0,undefined,0,42,17.595720000000256,-83,-42.602969999999914,999,0.5166666666666667,Off,0,1,0,0,-1,false,false
19:46:45 GMT-0500 Sat Mar 12 2022,false,42,17.595284,-83,-42.603298,183.5,0,0,0,0,0,0,0,0,0,0,0,0,undefined,0,42,17.595720000000256,-83,-42.60296000000017,999,1.9666666666666666,Off,0,1,0,0,-1,false,false
19:46:45 GMT-0500 Sat Mar 12 2022,false,42,17.5953,-83,-42.603293,183.5,0,0,0,0,0,0,0,0,0,0,0,0,undefined,0,42,17.595720000000256,-83,-42.60295000000042,999,0.9333333333333333,Off,0,1,0,0,-1,false,false
19:46:46 GMT-0500 Sat Mar 12 2022,false,42,17.595313,-83,-42.603289,183.5,0,0,0,0,0,0,0,0,0,0,0,0,undefined,0,42,17.595720000000256,-83,-42.60294000000067,999,1.4166666666666667,Off,0,1,0,0,-1,false,false
19:46:46 GMT-0500 Sat Mar 12 2022,false,42,17.595329,-83,-42.603284,183.5,0,0,0,0,0,0,0,0,0,0,0,0,undefined,0,42,17.595720000000256,-83,-42.602929999999105,999,0.4,Off,0,1,0,0,-1,false,false
19:46:47 GMT-0500 Sat Mar 12 2022,false,42,17.595345,-83,-42.603278,183.5,0,0,0,0,0,0,0,0,0,0,0,0,undefined,0,42,17.595720000000256,-83,-42.602929999999105,999,0.2,Off,0,1,0,0,-1,false,false
19:46:47 GMT-0500 Sat Mar 12 2022,false,42,17.595361,-83,-42.603273,183.5,0,0,0,0,0,0,0,0,0,0,0,0,undefined,0,42,17.595720000000256,-83,-42.60291999999936,999,2.5833333333333335,Off,0,1,0,0,-1,false,false
19:46:48 GMT-0500 Sat Mar 12 2022,false,42,17.595376,-83,-42.603268,183.5,0,0,0,0,0,0,0,0,0,0,0,0,undefined,0,42,17.595720000000256,-83,-42.60291999999936,999,1.55,Off,0,1,0,0,-1,false,false
19:46:48 GMT-0500 Sat Mar 12 2022,false,42,17.595391,-83,-42.603263,183.5,0,0,0,0,0,0,0,0,0,0,0,0,undefined,0,42,17.595720000000256,-83,-42.60290999999961,999,1.1,Off,0,1,0,0,-1,false,false
19:46:49 GMT-0500 Sat Mar 12 2022,false,42,17.595403,-83,-42.603259,183.5,0,0,0,0,0,0,0,0,0,0,0,0,undefined,0,42,17.595720000000256,-83,-42.60290999999961,999,1.15,Off,0,1,0,0,-1,false,false
19:46:49 GMT-0500 Sat Mar 12 2022,false,42,17.595418,-83,-42.603254,183.5,0,0,0,0,0,0,0,0,0,0,0,0,undefined,0,42,17.595720000000256,-83,-42.60289999999986,999,1.2166666666666666,Off,0,1,0,0,-1,false,false
19:46:50 GMT-0500 Sat Mar 12 2022,false,42,17.595433,-83,-42.603248,183.5,0,0,0,0,0,0,0,0,0,0,0,0,undefined,0,42,17.595720000000256,-83,-42.60289999999986,999,1.1833333333333333,Off,0,1,0,0,-1,false,false
19:46:50 GMT-0500 Sat Mar 12 2022,false,42,17.595447,-83,-42.603243,183.5,0,0,0,0,0,0,0,0,0,0,0,0,undefined,0,42,17.595730000000003,-83,-42.602890000000116,999,0.6166666666666667,Off,0,1,0,0,-1,false,false
19:46:51 GMT-0500 Sat Mar 12 2022,false,42,17.595462,-83,-42.603238,183.5,0,0,0,0,0,0,0,0,0,0,0,0,undefined,0,42,17.595730000000003,-83,-42.60288000000037,999,1.7,Off,0,1,0,0,-1,false,false
19:46:51 GMT-0500 Sat Mar 12 2022,false,42,17.595473,-83,-42.603234,183.5,0,0,0,0,0,0,0,0,0,0,0,0,undefined,0,42,17.59573999999975,-83,-42.60288000000037,999,1.7833333333333334,Off,0,1,0,0,-1,false,false
19:46:52 GMT-0500 Sat Mar 12 2022,false,42,17.595487,-83,-42.603229,183.5,0,0,0,0,0,0,0,0,0,0,0,0,undefined,0,42,17.595750000000407,-83,-42.60287000000062,999,1.8666666666666667,Off,0,1,0,0,-1,false,false
19:46:52 GMT-0500 Sat Mar 12 2022,false,42,17.595501,-83,-42.603223,183.5,0,0,0,0,0,0,0,0,0,0,0,0,undefined,0,42,17.595750000000407,-83,-42.60287000000062,999,1.0333333333333334,Off,0,1,0,0,-1,false,false
19:46:53 GMT-0500 Sat Mar 12 2022,false,42,17.595516,-83,-42.603218,183.5,0,0,0,0,0,0,0,0,0,0,0,0,undefined,0,42,17.595760000000155,-83,-42.60287000000062,999,0.95,Off,0,1,0,0,-1,false,false
19:46:53 GMT-0500 Sat Mar 12 2022,false,42,17.595527,-83,-42.603214,183.5,0,0,0,0,0,0,0,0,0,0,0,0,undefined,0,42,17.595760000000155,-83,-42.602860000000874,999,1.3666666666666667,Off,0,1,0,0,-1,false,false
19:46:54 GMT-0500 Sat Mar 12 2022,false,42,17.595541,-83,-42.603209,183.5,0,0,0,0,0,0,0,0,0,0,0,0,undefined,0,42,17.595760000000155,-83,-42.602860000000874,999,3.3333333333333335,Off,0,1,0,0,-1,false,false
19:46:54 GMT-0500 Sat Mar 12 2022,false,42,17.595554,-83,-42.603204,183.5,0,0,0,0,0,0,0,0,0,0,0,0,undefined,0,42,17.595769999999902,-83,-42.60287000000062,999,1.2666666666666666,Off,0,1,0,0,-1,false,false
19:46:55 GMT-0500 Sat Mar 12 2022,false,42,17.595568,-83,-42.603199,183.5,0,0,0,0,0,0,0,0,0,0,0,0,undefined,0,42,17.595769999999902,-83,-42.60287000000062,999,0.5166666666666667,Off,0,1,0,0,-1,false,false
19:46:55 GMT-0500 Sat Mar 12 2022,false,42,17.595581,-83,-42.603194,183.5,0,0,0,0,0,0,0,0,0,0,0,0,undefined,0,42,17.595769999999902,-83,-42.60287000000062,999,2.0833333333333335,Off,0,1,0,0,-1,false,false
19:46:56 GMT-0500 Sat Mar 12 2022,false,42,17.595595,-83,-42.603189,183.5,0,0,0,0,0,0,0,0,0,0,0,0,undefined,0,42,17.595769999999902,-83,-42.60288000000037,999,0.65,Off,0,1,0,0,-1,false,false
19:46:56 GMT-0500 Sat Mar 12 2022,false,42,17.594737,-83,-42.603258,183.5,0,0,0,0,0,0,0,0,0,0,0,0,undefined,0,42,17.59577999999965,-83,-42.60288000000037,999,0.85,Off,0,1,0,0,-1,false,false
19:46:57 GMT-0500 Sat Mar 12 2022,false,42,17.594749,-83,-42.603253,183.5,0,0,0,0,0,0,0,0,0,0,0,0,undefined,0,42,17.59577999999965,-83,-42.602890000000116,999,1.5333333333333334,Off,0,1,0,0,-1,false,false
19:46:57 GMT-0500 Sat Mar 12 2022,false,42,17.594773,-83,-42.603248,183.5,0,0,0,0,0,0,0,0,0,0,0,0,undefined,0,42,17.595790000000306,-83,-42.60288000000037,999,0.23333333333333334,Off,0,1,0,0,-1,false,false
19:46:58 GMT-0500 Sat Mar 12 2022,false,42,17.594796,-83,-42.603243,183.5,0,0,0,0,0,0,0,0,0,0,0,0,undefined,0,42,17.595800000000054,-83,-42.60288000000037,999,2.4166666666666665,Off,0,1,0,0,-1,false,false
19:46:58 GMT-0500 Sat Mar 12 2022,false,42,17.594814,-83,-42.603239,183.5,0,0,0,0,0,0,0,0,0,0,0,0,undefined,0,42,17.5958099999998,-83,-42.60287000000062,999,1.4666666666666666,Off,0,1,0,0,-1,false,false
19:46:59 GMT-0500 Sat Mar 12 2022,false,42,17.594837,-83,-42.603233,183.5,0,0,0,0,0,0,0,0,0,0,0,0,undefined,0,42,17.5958099999998,-83,-42.60287000000062,999,1.4166666666666667,Off,0,1,0,0,-1,false,false
19:46:59 GMT-0500 Sat Mar 12 2022,false,42,17.59486,-83,-42.603228,183.5,0,0,0,0,0,0,0,0,0,0,0,0,undefined,0,42,17.59581999999955,-83,-42.602860000000874,999,1.0666666666666667,Off,0,1,0,0,-1,false,false
19:47:00 GMT-0500 Sat Mar 12 2022,false,42,17.594882,-83,-42.603223,183.5,0,0,0,0,0,0,0,0,0,0,0,0,undefined,0,42,17.59581999999955,-83,-42.602860000000874,999,2.4,Off,0,1,0,0,-1,false,false
19:47:00 GMT-0500 Sat Mar 12 2022,false,42,17.594904,-83,-42.603217,183.5,0,0,0,0,0,0,0,0,0,0,0,0,undefined,0,42,17.595830000000205,-83,-42.60284999999931,999,2.6333333333333333,Off,0,1,0,0,-1,false,false
19:47:01 GMT-0500 Sat Mar 12 2022,false,42,17.594922,-83,-42.603213,183.5,0,0,0,0,0,0,0,0,0,0,0,0,undefined,0,42,17.595830000000205,-83,-42.60284999999931,999,0.8166666666666667,Off,0,1,0,0,-1,false,false
19:47:01 GMT-0500 Sat Mar 12 2022,false,42,17.594944,-83,-42.603208,183.5,0,0,0,0,0,0,0,0,0,0,0,0,undefined,0,42,17.595839999999953,-83,-42.60284999999931,999,0.9666666666666667,Off,0,1,0,0,-1,false,false
19:47:02 GMT-0500 Sat Mar 12 2022,false,42,17.594965,-83,-42.603203,183.5,0,0,0,0,0,0,0,0,0,0,0,0,undefined,0,42,17.595839999999953,-83,-42.60283999999956,999,0.9166666666666666,Off,0,1,0,0,-1,false,false
19:47:02 GMT-0500 Sat Mar 12 2022,false,42,17.594987,-83,-42.603198,183.5,0,0,0,0,0,0,0,0,0,0,0,0,undefined,0,42,17.5958499999997,-83,-42.60283999999956,999,1.0666666666666667,Off,0,1,0,0,-1,false,false
19:47:03 GMT-0500 Sat Mar 12 2022,false,42,17.595008,-83,-42.603192,183.5,0,0,0,0,0,0,0,0,0,0,0,0,undefined,0,42,17.5958499999997,-83,-42.60283999999956,999,0.9166666666666666,Off,0,1,0,0,-1,false,false
19:47:03 GMT-0500 Sat Mar 12 2022,false,42,17.595029,-83,-42.603187,183.5,0,0,0,0,0,0,0,0,0,0,0,0,undefined,0,42,17.595860000000357,-83,-42.60282999999981,999,1.4,Off,0,1,0,0,-1,false,false
19:47:04 GMT-0500 Sat Mar 12 2022,false,42,17.595046,-83,-42.603183,183.5,0,0,0,0,0,0,0,0,0,0,0,0,undefined,0,42,17.595870000000104,-83,-42.60282999999981,999,1.2166666666666666,Off,0,1,0,0,-1,false,false
19:47:04 GMT-0500 Sat Mar 12 2022,false,42,17.595067,-83,-42.603178,183.5,0,0,0,0,0,0,0,0,0,0,0,0,undefined,0,42,17.595870000000104,-83,-42.602820000000065,999,0.45,Off,0,1,0,0,-1,false,false
19:47:05 GMT-0500 Sat Mar 12 2022,false,42,17.595087,-83,-42.603173,183.5,0,0,0,0,0,0,0,0,0,0,0,0,undefined,0,42,17.595870000000104,-83,-42.60281000000032,999,0.5666666666666667,Off,0,1,0,0,-1,false,false
19:47:05 GMT-0500 Sat Mar 12 2022,false,42,17.595107,-83,-42.603168,183.5,0,0,0,0,0,0,0,0,0,0,0,0,undefined,0,42,17.595879999999852,-83,-42.60281000000032,999,0.8666666666666667,Off,0,1,0,0,-1,false,false
19:47:06 GMT-0500 Sat Mar 12 2022,false,42,17.595127,-83,-42.603162,183.5,0,0,0,0,0,0,0,0,0,0,0,0,undefined,0,42,17.595879999999852,-83,-42.60280000000057,999,0.36666666666666664,Off,0,1,0,0,-1,false,false
19:47:06 GMT-0500 Sat Mar 12 2022,false,42,17.595143,-83,-42.603158,183.5,0,0,0,0,0,0,0,0,0,0,0,0,undefined,0,42,17.5958899999996,-83,-42.60279000000082,999,1.7833333333333334,Off,0,1,0,0,-1,false,false
19:47:07 GMT-0500 Sat Mar 12 2022,false,42,17.595163,-83,-42.603153,183.5,0,0,0,0,0,0,0,0,0,0,0,0,undefined,0,42,17.5958899999996,-83,-42.60279000000082,999,1.5833333333333333,Off,0,1,0,0,-1,false,false
19:47:07 GMT-0500 Sat Mar 12 2022,false,42,17.595183,-83,-42.603148,183.5,0,0,0,0,0,0,0,0,0,0,0,0,undefined,0,42,17.5958899999996,-83,-42.60277999999926,999,2.4,Off,0,1,0,0,-1,false,false
19:47:08 GMT-0500 Sat Mar 12 2022,false,42,17.595202,-83,-42.603143,183.5,0,0,0,0,0,0,0,0,0,0,0,0,undefined,0,42,17.5958899999996,-83,-42.60277999999926,999,1.15,Off,0,1,0,0,-1,false,false
19:47:08 GMT-0500 Sat Mar 12 2022,false,42,17.595221,-83,-42.603137,183.5,0,0,0,0,0,0,0,0,0,0,0,0,undefined,0,42,17.595900000000256,-83,-42.60276999999951,999,0.5,Off,0,1,0,0,-1,false,false
19:47:09 GMT-0500 Sat Mar 12 2022,false,42,17.595236,-83,-42.603133,183.5,0,0,0,0,0,0,0,0,0,0,0,0,undefined,0,42,17.595910000000003,-83,-42.60275999999976,999,1.6333333333333333,Off,0,1,0,0,-1,false,false
19:47:09 GMT-0500 Sat Mar 12 2022,false,42,17.595255,-83,-42.603128,183.5,0,0,0,0,0,0,0,0,0,0,0,0,undefined,0,42,17.595910000000003,-83,-42.602750000000015,999,1.1166666666666667,Off,0,1,0,0,-1,false,false
19:47:10 GMT-0500 Sat Mar 12 2022,false,42,17.595274,-83,-42.603122,183.5,0,0,0,0,0,0,0,0,0,0,0,0,undefined,0,42,17.595910000000003,-83,-42.602750000000015,999,1.6166666666666667,Off,0,1,0,0,-1,false,false
19:47:10 GMT-0500 Sat Mar 12 2022,false,42,17.595293,-83,-42.603117,183.5,0,0,0,0,0,0,0,0,0,0,0,0,undefined,0,42,17.59591999999975,-83,-42.60274000000027,999,2.0166666666666666,Off,0,1,0,0,-1,false,false
19:47:11 GMT-0500 Sat Mar 12 2022,false,42,17.595311,-83,-42.603112,183.5,0,0,0,0,0,0,0,0,0,0,0,0,undefined,0,42,17.59591999999975,-83,-42.60274000000027,999,1.7,Off,0,1,0,0,-1,false,false
19:47:11 GMT-0500 Sat Mar 12 2022,false,42,17.595326,-83,-42.603108,183.5,0,0,0,0,0,0,0,0,0,0,0,0,undefined,0,42,17.595930000000408,-83,-42.60273000000052,999,1.9666666666666666,Off,0,1,0,0,-1,false,false
19:47:12 GMT-0500 Sat Mar 12 2022,false,42,17.595344,-83,-42.603102,183.5,0,0,0,0,0,0,0,0,0,0,0,0,undefined,0,42,17.595930000000408,-83,-42.60273000000052,999,2.55,Off,0,1,0,0,-1,false,false
19:47:12 GMT-0500 Sat Mar 12 2022,false,42,17.595362,-83,-42.603097,183.5,0,0,0,0,0,0,0,0,0,0,0,0,undefined,0,42,17.595930000000408,-83,-42.60273000000052,999,1.05,Off,0,1,0,0,-1,false,false
19:47:13 GMT-0500 Sat Mar 12 2022,false,42,17.595379,-83,-42.603092,183.5,0,0,0,0,0,0,0,0,0,0,0,0,undefined,0,42,17.595940000000155,-83,-42.60273000000052,999,1.9166666666666667,Off,0,1,0,0,-1,false,false
19:47:13 GMT-0500 Sat Mar 12 2022,false,42,17.595397,-83,-42.603087,183.5,0,0,0,0,0,0,0,0,0,0,0,0,undefined,0,42,17.595940000000155,-83,-42.60274000000027,999,1.5833333333333333,Off,0,1,0,0,-1,false,false
19:47:14 GMT-0500 Sat Mar 12 2022,false,42,17.595411,-83,-42.603083,183.5,0,0,0,0,0,0,0,0,0,0,0,0,undefined,0,42,17.595949999999903,-83,-42.60274000000027,999,1.45,Off,0,1,0,0,-1,false,false
19:47:14 GMT-0500 Sat Mar 12 2022,false,42,17.595428,-83,-42.603078,183.5,0,0,0,0,0,0,0,0,0,0,0,0,undefined,0,42,17.595949999999903,-83,-42.60274000000027,999,1.55,Off,0,1,0,0,-1,false,false
19:47:15 GMT-0500 Sat Mar 12 2022,false,42,17.595445,-83,-42.603073,183.5,0,0,0,0,0,0,0,0,0,0,0,0,undefined,0,42,17.59595999999965,-83,-42.60274000000027,999,1.2833333333333334,Off,0,1,0,0,-1,false,false
19:47:15 GMT-0500 Sat Mar 12 2022,false,42,17.595462,-83,-42.603068,183.5,0,0,0,0,0,0,0,0,0,0,0,0,undefined,0,42,17.595970000000307,-83,-42.60273000000052,999,0.7166666666666667,Off,0,1,0,0,-1,false,false
19:47:16 GMT-0500 Sat Mar 12 2022,false,42,17.595479,-83,-42.603063,183.5,0,0,0,0,0,0,0,0,0,0,0,0,undefined,0,42,17.595970000000307,-83,-42.60272000000077,999,0.9,Off,0,1,0,0,-1,false,false
19:47:16 GMT-0500 Sat Mar 12 2022,false,42,17.595493,-83,-42.603059,183.5,0,0,0,0,0,0,0,0,0,0,0,0,undefined,0,42,17.595980000000054,-83,-42.602709999999206,999,1.7166666666666666,Off,0,1,0,0,-1,false,false
19:47:17 GMT-0500 Sat Mar 12 2022,false,42,17.595509,-83,-42.603054,183.5,0,0,0,0,0,0,0,0,0,0,0,0,undefined,0,42,17.595980000000054,-83,-42.602709999999206,999,1.9,Off,0,1,0,0,-1,false,false
19:47:17 GMT-0500 Sat Mar 12 2022,false,42,17.595526,-83,-42.603049,183.5,0,0,0,0,0,0,0,0,0,0,0,0,undefined,0,42,17.5959899999998,-83,-42.602709999999206,999,1.2666666666666666,Off,0,1,0,0,-1,false,false
19:47:18 GMT-0500 Sat Mar 12 2022,false,42,17.595542,-83,-42.603044,183.5,0,0,0,0,0,0,0,0,0,0,0,0,undefined,0,42,17.5959899999998,-83,-42.602709999999206,999,0.75,Off,0,1,0,0,-1,false,false
19:47:18 GMT-0500 Sat Mar 12 2022,false,42,17.595559,-83,-42.60304,183.5,0,0,0,0,0,0,0,0,0,0,0,0,undefined,0,42,17.59599999999955,-83,-42.602709999999206,999,0.55,Off,0,1,0,0,-1,false,false
19:47:19 GMT-0500 Sat Mar 12 2022,false,42,17.595575,-83,-42.603035,183.5,0,0,0,0,0,0,0,0,0,0,0,0,undefined,0,42,17.59599999999955,-83,-42.60272000000077,999,0.6166666666666667,Off,0,1,0,0,-1,false,false
19:47:19 GMT-0500 Sat Mar 12 2022,false,42,17.595588,-83,-42.603031,183.5,0,0,0,0,0,0,0,0,0,0,0,0,undefined,0,42,17.59599999999955,-83,-42.60272000000077,999,0.2833333333333333,Off,0,1,0,0,-1,false,false
19:47:20 GMT-0500 Sat Mar 12 2022,false,42,17.595603,-83,-42.603027,183.5,0,0,0,0,0,0,0,0,0,0,0,0,undefined,0,42,17.59599999999955,-83,-42.60272000000077,999,0.9,Off,0,1,0,0,-1,false,false
19:47:20 GMT-0500 Sat Mar 12 2022,false,42,17.595619,-83,-42.603022,183.5,0,0,0,0,0,0,0,0,0,0,0,0,undefined,0,42,17.59599999999955,-83,-42.60272000000077,999,1.5666666666666667,Off,0,1,0,0,-1,false,false
19:47:21 GMT-0500 Sat Mar 12 2022,false,42,17.595635,-83,-42.603018,183.5,0,0,0,0,0,0,0,0,0,0,0,0,undefined,0,42,17.59599999999955,-83,-42.60272000000077,999,0.11666666666666667,Off,0,1,0,0,-1,false,false
19:47:21 GMT-0500 Sat Mar 12 2022,false,42,17.594946,-83,-42.603072,183.5,0,0,0,0,0,0,0,0,0,0,0,0,undefined,0,42,17.59599999999955,-83,-42.60272000000077,999,1.1,Off,0,1,0,0,-1,false,false
19:47:22 GMT-0500 Sat Mar 12 2022,false,42,17.594789,-83,-42.603083,183.5,0,0,0,0,0,0,0,0,0,0,0,0,undefined,0,42,17.596010000000206,-83,-42.60272000000077,999,1.7666666666666666,Off,0,1,0,0,-1,false,false
19:47:22 GMT-0500 Sat Mar 12 2022,false,42,17.594814,-83,-42.603077,183.5,0,0,0,0,0,0,0,0,0,0,0,0,undefined,0,42,17.596010000000206,-83,-42.60272000000077,999,1.8666666666666667,Off,0,1,0,0,-1,false,false
19:47:23 GMT-0500 Sat Mar 12 2022,false,42,17.594839,-83,-42.603072,183.5,0,0,0,0,0,0,0,0,0,0,0,0,undefined,0,42,17.596010000000206,-83,-42.60273000000052,999,2.033333333333333,Off,0,1,0,0,-1,false,false
19:47:23 GMT-0500 Sat Mar 12 2022,false,42,17.594864,-83,-42.603068,183.5,0,0,0,0,0,0,0,0,0,0,0,0,undefined,0,42,17.596019999999953,-83,-42.60273000000052,999,2.066666666666667,Off,0,1,0,0,-1,false,false
19:47:24 GMT-0500 Sat Mar 12 2022,false,42,17.594883,-83,-42.603064,183.5,0,0,0,0,0,0,0,0,0,0,0,0,undefined,0,42,17.5960299999997,-83,-42.60272000000077,999,2.1666666666666665,Off,0,1,0,0,-1,false,false
19:47:24 GMT-0500 Sat Mar 12 2022,false,42,17.594908,-83,-42.603059,183.5,0,0,0,0,0,0,0,0,0,0,0,0,undefined,0,42,17.596040000000357,-83,-42.60273000000052,999,1.3,Off,0,1,0,0,-1,false,false
19:47:25 GMT-0500 Sat Mar 12 2022,false,42,17.594932,-83,-42.603054,183.5,0,0,0,0,0,0,0,0,0,0,0,0,undefined,0,42,17.596040000000357,-83,-42.60273000000052,999,1.5833333333333333,Off,0,1,0,0,-1,false,false
19:47:25 GMT-0500 Sat Mar 12 2022,false,42,17.594956,-83,-42.603049,183.5,0,0,0,0,0,0,0,0,0,0,0,0,undefined,0,42,17.596050000000105,-83,-42.60272000000077,999,1.3,Off,0,1,0,0,-1,false,false
19:47:26 GMT-0500 Sat Mar 12 2022,false,42,17.594975,-83,-42.603046,183.5,0,0,0,0,0,0,0,0,0,0,0,0,undefined,0,42,17.596050000000105,-83,-42.60272000000077,999,1.1333333333333333,Off,0,1,0,0,-1,false,false
19:47:26 GMT-0500 Sat Mar 12 2022,false,42,17.594998,-83,-42.603041,183.5,0,0,0,0,0,0,0,0,0,0,0,0,undefined,0,42,17.596059999999852,-83,-42.602709999999206,999,1.35,Off,0,1,0,0,-1,false,false
19:47:27 GMT-0500 Sat Mar 12 2022,false,42,17.595021,-83,-42.603036,183.5,0,0,0,0,0,0,0,0,0,0,0,0,undefined,0,42,17.596059999999852,-83,-42.60269999999946,999,2.2666666666666666,Off,0,1,0,0,-1,false,false
19:47:27 GMT-0500 Sat Mar 12 2022,false,42,17.595044,-83,-42.603031,183.5,0,0,0,0,0,0,0,0,0,0,0,0,undefined,0,42,17.596059999999852,-83,-42.60269999999946,999,0.9833333333333333,Off,0,1,0,0,-1,false,false
19:47:28 GMT-0500 Sat Mar 12 2022,false,42,17.595067,-83,-42.603026,183.5,0,0,0,0,0,0,0,0,0,0,0,0,undefined,0,42,17.5960699999996,-83,-42.60268999999971,999,1.1166666666666667,Off,0,1,0,0,-1,false,false
19:47:28 GMT-0500 Sat Mar 12 2022,false,42,17.59509,-83,-42.603022,183.5,0,0,0,0,0,0,0,0,0,0,0,0,undefined,0,42,17.5960699999996,-83,-42.60269999999946,999,1.7833333333333334,Off,0,1,0,0,-1,false,false
19:47:29 GMT-0500 Sat Mar 12 2022,false,42,17.595108,-83,-42.603018,183.5,0,0,0,0,0,0,0,0,0,0,0,0,undefined,0,42,17.596080000000256,-83,-42.60268999999971,999,2.066666666666667,Off,0,1,0,0,-1,false,false
19:47:29 GMT-0500 Sat Mar 12 2022,false,42,17.59513,-83,-42.603013,183.5,0,0,0,0,0,0,0,0,0,0,0,0,undefined,0,42,17.596080000000256,-83,-42.60268999999971,999,1.9666666666666666,Off,0,1,0,0,-1,false,false
19:47:30 GMT-0500 Sat Mar 12 2022,false,42,17.595152,-83,-42.603009,183.5,0,0,0,0,0,0,0,0,0,0,0,0,undefined,0,42,17.596080000000256,-83,-42.602679999999964,999,3.216666666666667,Off,0,1,0,0,-1,false,false
19:47:30 GMT-0500 Sat Mar 12 2022,false,42,17.595174,-83,-42.603004,183.5,0,0,0,0,0,0,0,0,0,0,0,0,undefined,0,42,17.596080000000256,-83,-42.602679999999964,999,1.0833333333333333,Off,0,1,0,0,-1,false,false
19:47:31 GMT-0500 Sat Mar 12 2022,false,42,17.595195,-83,-42.602999,183.5,0,0,0,0,0,0,0,0,0,0,0,0,undefined,0,42,17.596080000000256,-83,-42.60268999999971,999,1.3333333333333333,Off,0,1,0,0,-1,false,false
19:47:31 GMT-0500 Sat Mar 12 2022,false,42,17.595212,-83,-42.602996,183.5,0,0,0,0,0,0,0,0,0,0,0,0,undefined,0,42,17.5960699999996,-83,-42.602679999999964,999,4.15,Off,0,1,0,0,-1,false,false
19:47:32 GMT-0500 Sat Mar 12 2022,false,42,17.595233,-83,-42.602991,183.5,0,0,0,0,0,0,0,0,0,0,0,0,undefined,0,42,17.596080000000256,-83,-42.60268999999971,999,0.4666666666666667,Off,0,1,0,0,-1,false,false
19:47:32 GMT-0500 Sat Mar 12 2022,false,42,17.595254,-83,-42.602987,183.5,0,0,0,0,0,0,0,0,0,0,0,0,undefined,0,42,17.596080000000256,-83,-42.60268999999971,999,1.4,Off,0,1,0,0,-1,false,false
19:47:33 GMT-0500 Sat Mar 12 2022,false,42,17.595274,-83,-42.602982,183.5,0,0,0,0,0,0,0,0,0,0,0,0,undefined,0,42,17.596080000000256,-83,-42.60268999999971,999,1.55,Off,0,1,0,0,-1,false,false
19:47:33 GMT-0500 Sat Mar 12 2022,false,42,17.595294,-83,-42.602978,183.5,0,0,0,0,0,0,0,0,0,0,0,0,undefined,0,42,17.596080000000256,-83,-42.60268999999971,999,1.25,Off,0,1,0,0,-1,false,false
19:47:34 GMT-0500 Sat Mar 12 2022,false,42,17.59531,-83,-42.602975,183.5,0,0,0,0,0,0,0,0,0,0,0,0,undefined,0,42,17.5960699999996,-83,-42.60269999999946,999,0.08333333333333333,Off,0,1,0,0,-1,false,false
