Timestamp,Auton Enabled,Odom Degrees Lat,Odom Minutes Lat,Odom Degrees Lon,Odom Minutes Lon,Odom bearing,Odom speed,Accel X,Accel Y,Accel Z,Gyro X,Gyro Y,Gyro Z,Mag X,Mag Y,Mag Z,Roll,Pitch,Yaw,IMU Bearing,GPS Degrees Lat,GPS Minutes Lat,GPS Degrees Lon,GPS Minutes Lon,GPS Bearing,GPS Speed,Nav State,Waypoints Completed,Total Waypoints,Forward/Back,Left/Right,Dampen,Kill,Restart
20:02:07 GMT-0500 Sat Mar 12 2022,false,42,17.598864,-83,-42.601987,269.4375,0,0,0,0,0,0,0,0,0,0,0,0,undefined,0,42,17.598949999999604,-83,-42.60164000000077,999,1.8666666666666667,Off,0,1,0,0,-1,false,false
20:02:07 GMT-0500 Sat Mar 12 2022,false,42,17.598866,-83,-42.601996,269.4375,0,0,0,0,0,0,0,0,0,0,0,0,undefined,0,42,17.598949999999604,-83,-42.60165000000052,999,2.55,Off,0,1,0,0,-1,false,false
20:02:08 GMT-0500 Sat Mar 12 2022,false,42,17.598868,-83,-42.602002,269.4375,0,0,0,0,0,0,0,0,0,0,0,0,undefined,0,42,17.598949999999604,-83,-42.60165000000052,999,2.8,Off,0,1,0,0,-1,false,false
20:02:08 GMT-0500 Sat Mar 12 2022,false,42,17.59887,-83,-42.60201,269.4375,0,0,0,0,0,0,0,0,0,0,0,0,undefined,0,42,17.598949999999604,-83,-42.601660000000265,999,2.716666666666667,Off,0,1,0,0,-1,false,false
20:02:09 GMT-0500 Sat Mar 12 2022,false,42,17.598872,-83,-42.602019,269.4375,0,0,0,0,0,0,0,0,0,0,0,0,undefined,0,42,17.59896000000026,-83,-42.601660000000265,999,2.15,Off,0,1,0,0,-1,false,false
20:02:09 GMT-0500 Sat Mar 12 2022,false,42,17.598874,-83,-42.602028,269.4375,0,0,0,0,0,0,0,0,0,0,0,0,undefined,0,42,17.59896000000026,-83,-42.60167000000001,999,1.4166666666666667,Off,0,1,0,0,-1,false,false
20:02:10 GMT-0500 Sat Mar 12 2022,false,42,17.598877,-83,-42.602036,269.4375,0,0,0,0,0,0,0,0,0,0,0,0,undefined,0,42,17.59897000000001,-83,-42.60167000000001,999,1.0666666666666667,Off,0,1,0,0,-1,false,false
20:02:10 GMT-0500 Sat Mar 12 2022,false,42,17.598879,-83,-42.602043,269.4375,0,0,0,0,0,0,0,0,0,0,0,0,undefined,0,42,17.598979999999756,-83,-42.60167999999976,999,0.7333333333333333,Off,0,1,0,0,-1,false,false
20:02:11 GMT-0500 Sat Mar 12 2022,false,42,17.598881,-83,-42.602052,269.4375,0,0,0,0,0,0,0,0,0,0,0,0,undefined,0,42,17.598990000000413,-83,-42.60167999999976,999,1.4833333333333334,Off,0,1,0,0,-1,false,false
20:02:11 GMT-0500 Sat Mar 12 2022,false,42,17.598884,-83,-42.60206,269.4375,0,0,0,0,0,0,0,0,0,0,0,0,undefined,0,42,17.59900000000016,-83,-42.60167999999976,999,3.466666666666667,Off,0,1,0,0,-1,false,false
20:02:12 GMT-0500 Sat Mar 12 2022,false,42,17.598886,-83,-42.602067,269.4375,0,0,0,0,0,0,0,0,0,0,0,0,undefined,0,42,17.59900000000016,-83,-42.60167999999976,999,0.9833333333333333,Off,0,1,0,0,-1,false,false
20:02:12 GMT-0500 Sat Mar 12 2022,false,42,17.598889,-83,-42.602075,269.4375,0,0,0,0,0,0,0,0,0,0,0,0,undefined,0,42,17.59900000000016,-83,-42.60167999999976,999,2.3333333333333335,Off,0,1,0,0,-1,false,false
20:02:13 GMT-0500 Sat Mar 12 2022,false,42,17.598891,-83,-42.602083,269.4375,0,0,0,0,0,0,0,0,0,0,0,0,undefined,0,42,17.59900000000016,-83,-42.60167999999976,999,2.566666666666667,Off,0,1,0,0,-1,false,false
20:02:13 GMT-0500 Sat Mar 12 2022,false,42,17.598894,-83,-42.602091,269.4375,0,0,0,0,0,0,0,0,0,0,0,0,undefined,0,42,17.599009999999907,-83,-42.60167000000001,999,2.55,Off,0,1,0,0,-1,false,false
20:02:14 GMT-0500 Sat Mar 12 2022,false,42,17.598897,-83,-42.602099,269.4375,0,0,0,0,0,0,0,0,0,0,0,0,undefined,0,42,17.599009999999907,-83,-42.60167000000001,999,2.783333333333333,Off,0,1,0,0,-1,false,false
20:02:14 GMT-0500 Sat Mar 12 2022,false,42,17.598899,-83,-42.602106,269.4375,0,0,0,0,0,0,0,0,0,0,0,0,undefined,0,42,17.599009999999907,-83,-42.601660000000265,999,0.5166666666666667,Off,0,1,0,0,-1,false,false
20:02:15 GMT-0500 Sat Mar 12 2022,false,42,17.598901,-83,-42.602112,269.4375,0,0,0,0,0,0,0,0,0,0,0,0,undefined,0,42,17.599009999999907,-83,-42.601660000000265,999,1.3833333333333333,Off,0,1,0,0,-1,false,false
20:02:15 GMT-0500 Sat Mar 12 2022,false,42,17.598903,-83,-42.602119,269.4375,0,0,0,0,0,0,0,0,0,0,0,0,undefined,0,42,17.59900000000016,-83,-42.60165000000052,999,0.8666666666666667,Off,0,1,0,0,-1,false,false
20:02:16 GMT-0500 Sat Mar 12 2022,false,42,17.598905,-83,-42.602126,269.4375,0,0,0,0,0,0,0,0,0,0,0,0,undefined,0,42,17.599009999999907,-83,-42.60165000000052,999,0.5,Off,0,1,0,0,-1,false,false
20:02:16 GMT-0500 Sat Mar 12 2022,false,42,17.598908,-83,-42.602133,269.4375,0,0,0,0,0,0,0,0,0,0,0,0,undefined,0,42,17.599009999999907,-83,-42.60165000000052,999,1.6666666666666667,Off,0,1,0,0,-1,false,false
20:02:17 GMT-0500 Sat Mar 12 2022,false,42,17.59891,-83,-42.602139,269.4375,0,0,0,0,0,0,0,0,0,0,0,0,undefined,0,42,17.599009999999907,-83,-42.60165000000052,999,1.1333333333333333,Off,0,1,0,0,-1,false,false
20:02:17 GMT-0500 Sat Mar 12 2022,false,42,17.598912,-83,-42.602146,269.4375,0,0,0,0,0,0,0,0,0,0,0,0,undefined,0,42,17.599009999999907,-83,-42.60165000000052,999,1.9,Off,0,1,0,0,-1,false,false
20:02:18 GMT-0500 Sat Mar 12 2022,false,42,17.598914,-83,-42.602152,269.4375,0,0,0,0,0,0,0,0,0,0,0,0,undefined,0,42,17.599009999999907,-83,-42.60165000000052,999,1.0166666666666666,Off,0,1,0,0,-1,false,false
20:02:18 GMT-0500 Sat Mar 12 2022,false,42,17.598916,-83,-42.602159,269.4375,0,0,0,0,0,0,0,0,0,0,0,0,undefined,0,42,17.599009999999907,-83,-42.60165000000052,999,2.9833333333333334,Off,0,1,0,0,-1,false,false
20:02:19 GMT-0500 Sat Mar 12 2022,false,42,17.598918,-83,-42.602165,269.4375,0,0,0,0,0,0,0,0,0,0,0,0,undefined,0,42,17.599009999999907,-83,-42.60165000000052,999,0.6166666666666667,Off,0,1,0,0,-1,false,false
20:02:19 GMT-0500 Sat Mar 12 2022,false,42,17.598919,-83,-42.602172,269.4375,0,0,0,0,0,0,0,0,0,0,0,0,undefined,0,42,17.599009999999907,-83,-42.601660000000265,999,1.4,Off,0,1,0,0,-1,false,false
20:02:20 GMT-0500 Sat Mar 12 2022,false,42,17.598921,-83,-42.602179,269.4375,0,0,0,0,0,0,0,0,0,0,0,0,undefined,0,42,17.599009999999907,-83,-42.601660000000265,999,3,Off,0,1,0,0,-1,false,false
20:02:20 GMT-0500 Sat Mar 12 2022,false,42,17.598923,-83,-42.602185,269.4375,0,0,0,0,0,0,0,0,0,0,0,0,undefined,0,42,17.599019999999655,-83,-42.601660000000265,999,2.3833333333333333,Off,0,1,0,0,-1,false,false
20:02:21 GMT-0500 Sat Mar 12 2022,false,42,17.598924,-83,-42.602191,269.4375,0,0,0,0,0,0,0,0,0,0,0,0,undefined,0,42,17.599019999999655,-83,-42.601660000000265,999,1.4666666666666666,Off,0,1,0,0,-1,false,false
20:02:21 GMT-0500 Sat Mar 12 2022,false,42,17.598926,-83,-42.602198,269.4375,0,0,0,0,0,0,0,0,0,0,0,0,undefined,0,42,17.599019999999655,-83,-42.601660000000265,999,1.35,Off,0,1,0,0,-1,false,false
20:02:22 GMT-0500 Sat Mar 12 2022,false,42,17.598928,-83,-42.602205,269.4375,0,0,0,0,0,0,0,0,0,0,0,0,undefined,0,42,17.599019999999655,-83,-42.601660000000265,999,1.8166666666666667,Off,0,1,0,0,-1,false,false
20:02:22 GMT-0500 Sat Mar 12 2022,false,42,17.59893,-83,-42.602212,269.4375,0,0,0,0,0,0,0,0,0,0,0,0,undefined,0,42,17.599019999999655,-83,-42.601660000000265,999,2.3,Off,0,1,0,0,-1,false,false
20:02:23 GMT-0500 Sat Mar 12 2022,false,42,17.598932,-83,-42.602218,269.4375,0,0,0,0,0,0,0,0,0,0,0,0,undefined,0,42,17.59903000000031,-83,-42.60167000000001,999,0.8,Off,0,1,0,0,-1,false,false
20:02:23 GMT-0500 Sat Mar 12 2022,false,42,17.598933,-83,-42.602224,269.4375,0,0,0,0,0,0,0,0,0,0,0,0,undefined,0,42,17.599019999999655,-83,-42.60167000000001,999,2.4833333333333334,Off,0,1,0,0,-1,false,false
20:02:24 GMT-0500 Sat Mar 12 2022,false,42,17.598935,-83,-42.602231,269.4375,0,0,0,0,0,0,0,0,0,0,0,0,undefined,0,42,17.59903000000031,-83,-42.60167000000001,999,2.0833333333333335,Off,0,1,0,0,-1,false,false
20:02:24 GMT-0500 Sat Mar 12 2022,false,42,17.598936,-83,-42.602237,269.4375,0,0,0,0,0,0,0,0,0,0,0,0,undefined,0,42,17.59903000000031,-83,-42.60167000000001,999,1.5,Off,0,1,0,0,-1,false,false
20:02:25 GMT-0500 Sat Mar 12 2022,false,42,17.598938,-83,-42.602244,269.4375,0,0,0,0,0,0,0,0,0,0,0,0,undefined,0,42,17.599019999999655,-83,-42.60167000000001,999,2.533333333333333,Off,0,1,0,0,-1,false,false
20:02:25 GMT-0500 Sat Mar 12 2022,false,42,17.59894,-83,-42.602251,269.4375,0,0,0,0,0,0,0,0,0,0,0,0,undefined,0,42,17.599019999999655,-83,-42.60167000000001,999,0.6333333333333333,Off,0,1,0,0,-1,false,false
20:02:26 GMT-0500 Sat Mar 12 2022,false,42,17.598941,-83,-42.602256,269.4375,0,0,0,0,0,0,0,0,0,0,0,0,undefined,0,42,17.599019999999655,-83,-42.60167000000001,999,0.65,Off,0,1,0,0,-1,false,false
20:02:26 GMT-0500 Sat Mar 12 2022,false,42,17.598942,-83,-42.602263,269.4375,0,0,0,0,0,0,0,0,0,0,0,0,undefined,0,42,17.599009999999907,-83,-42.60167000000001,999,2.3333333333333335,Off,0,1,0,0,-1,false,false
20:02:27 GMT-0500 Sat Mar 12 2022,false,42,17.598943,-83,-42.60227,269.4375,0,0,0,0,0,0,0,0,0,0,0,0,undefined,0,42,17.599019999999655,-83,-42.60167999999976,999,1,Off,0,1,0,0,-1,false,false
20:02:27 GMT-0500 Sat Mar 12 2022,false,42,17.598945,-83,-42.602277,269.4375,0,0,0,0,0,0,0,0,0,0,0,0,undefined,0,42,17.599019999999655,-83,-42.60167999999976,999,1.4666666666666666,Off,0,1,0,0,-1,false,false
20:02:28 GMT-0500 Sat Mar 12 2022,false,42,17.598946,-83,-42.602283,269.4375,0,0,0,0,0,0,0,0,0,0,0,0,undefined,0,42,17.599019999999655,-83,-42.60167999999976,999,1.95,Off,0,1,0,0,-1,false,false
20:02:28 GMT-0500 Sat Mar 12 2022,false,42,17.598947,-83,-42.602289,269.4375,0,0,0,0,0,0,0,0,0,0,0,0,undefined,0,42,17.599019999999655,-83,-42.60167999999976,999,2.183333333333333,Off,0,1,0,0,-1,false,false
20:02:29 GMT-0500 Sat Mar 12 2022,false,42,17.598948,-83,-42.602295,269.4375,0,0,0,0,0,0,0,0,0,0,0,0,undefined,0,42,17.599019999999655,-83,-42.60168999999951,999,2.216666666666667,Off,0,1,0,0,-1,false,false
20:02:29 GMT-0500 Sat Mar 12 2022,false,42,17.598949,-83,-42.602302,269.4375,0,0,0,0,0,0,0,0,0,0,0,0,undefined,0,42,17.599019999999655,-83,-42.60168999999951,999,1.3166666666666667,Off,0,1,0,0,-1,false,false
20:02:30 GMT-0500 Sat Mar 12 2022,false,42,17.598951,-83,-42.602309,269.4375,0,0,0,0,0,0,0,0,0,0,0,0,undefined,0,42,17.599009999999907,-83,-42.60168999999951,999,0.8166666666666667,Off,0,1,0,0,-1,false,false
20:02:30 GMT-0500 Sat Mar 12 2022,false,42,17.598951,-83,-42.602315,269.4375,0,0,0,0,0,0,0,0,0,0,0,0,undefined,0,42,17.599009999999907,-83,-42.601699999999255,999,1.0333333333333334,Off,0,1,0,0,-1,false,false
20:02:31 GMT-0500 Sat Mar 12 2022,false,42,17.598952,-83,-42.602321,269.4375,0,0,0,0,0,0,0,0,0,0,0,0,undefined,0,42,17.599009999999907,-83,-42.601699999999255,999,0.85,Off,0,1,0,0,-1,false,false
20:02:31 GMT-0500 Sat Mar 12 2022,false,42,17.598953,-83,-42.602328,269.4375,0,0,0,0,0,0,0,0,0,0,0,0,undefined,0,42,17.599009999999907,-83,-42.601699999999255,999,1.05,Off,0,1,0,0,-1,false,false
20:02:32 GMT-0500 Sat Mar 12 2022,false,42,17.598954,-83,-42.602334,269.4375,0,0,0,0,0,0,0,0,0,0,0,0,undefined,0,42,17.599019999999655,-83,-42.60171000000082,999,0.9333333333333333,Off,0,1,0,0,-1,false,false
20:02:32 GMT-0500 Sat Mar 12 2022,false,42,17.598955,-83,-42.602341,269.4375,0,0,0,0,0,0,0,0,0,0,0,0,undefined,0,42,17.599009999999907,-83,-42.60171000000082,999,0.8,Off,0,1,0,0,-1,false,false
20:02:33 GMT-0500 Sat Mar 12 2022,false,42,17.598956,-83,-42.602348,269.4375,0,0,0,0,0,0,0,0,0,0,0,0,undefined,0,42,17.599009999999907,-83,-42.60171000000082,999,1.85,Off,0,1,0,0,-1,false,false
20:02:33 GMT-0500 Sat Mar 12 2022,false,42,17.598957,-83,-42.602354,269.4375,0,0,0,0,0,0,0,0,0,0,0,0,undefined,0,42,17.599009999999907,-83,-42.60172000000057,999,2.4166666666666665,Off,0,1,0,0,-1,false,false
20:02:34 GMT-0500 Sat Mar 12 2022,false,42,17.598957,-83,-42.602361,269.4375,0,0,0,0,0,0,0,0,0,0,0,0,undefined,0,42,17.599009999999907,-83,-42.60172000000057,999,1.4666666666666666,Off,0,1,0,0,-1,false,false
20:02:34 GMT-0500 Sat Mar 12 2022,false,42,17.598958,-83,-42.602367,269.4375,0,0,0,0,0,0,0,0,0,0,0,0,undefined,0,42,17.599009999999907,-83,-42.60172000000057,999,0.55,Off,0,1,0,0,-1,false,false
20:02:35 GMT-0500 Sat Mar 12 2022,false,42,17.598959,-83,-42.602374,269.4375,0,0,0,0,0,0,0,0,0,0,0,0,undefined,0,42,17.599009999999907,-83,-42.60172000000057,999,2.533333333333333,Off,0,1,0,0,-1,false,false
20:02:35 GMT-0500 Sat Mar 12 2022,false,42,17.59896,-83,-42.602381,269.4375,0,0,0,0,0,0,0,0,0,0,0,0,undefined,0,42,17.599009999999907,-83,-42.60172000000057,999,1.1333333333333333,Off,0,1,0,0,-1,false,false
20:02:36 GMT-0500 Sat Mar 12 2022,false,42,17.59896,-83,-42.602387,269.4375,0,0,0,0,0,0,0,0,0,0,0,0,undefined,0,42,17.599009999999907,-83,-42.60172000000057,999,1.1666666666666667,Off,0,1,0,0,-1,false,false
20:02:36 GMT-0500 Sat Mar 12 2022,false,42,17.598961,-83,-42.602393,269.4375,0,0,0,0,0,0,0,0,0,0,0,0,undefined,0,42,17.598979999999756,-83,-42.60172000000057,999,2.25,Off,0,1,0,0,-1,false,false
20:02:37 GMT-0500 Sat Mar 12 2022,false,42,17.598961,-83,-42.6024,269.4375,0,0,0,0,0,0,0,0,0,0,0,0,undefined,0,42,17.59897000000001,-83,-42.601730000000316,999,0.4,Off,0,1,0,0,-1,false,false
20:02:37 GMT-0500 Sat Mar 12 2022,false,42,17.598961,-83,-42.602407,269.4375,0,0,0,0,0,0,0,0,0,0,0,0,undefined,0,42,17.59897000000001,-83,-42.601730000000316,999,1.6833333333333333,Off,0,1,0,0,-1,false,false
20:02:38 GMT-0500 Sat Mar 12 2022,false,42,17.598961,-83,-42.602413,269.4375,0,0,0,0,0,0,0,0,0,0,0,0,undefined,0,42,17.59897000000001,-83,-42.60172000000057,999,1.55,Off,0,1,0,0,-1,false,false
20:02:38 GMT-0500 Sat Mar 12 2022,false,42,17.598961,-83,-42.60242,269.4375,0,0,0,0,0,0,0,0,0,0,0,0,undefined,0,42,17.59896000000026,-83,-42.60172000000057,999,2.316666666666667,Off,0,1,0,0,-1,false,false
20:02:39 GMT-0500 Sat Mar 12 2022,false,42,17.598961,-83,-42.602425,269.4375,0,0,0,0,0,0,0,0,0,0,0,0,undefined,0,42,17.598949999999604,-83,-42.60172000000057,999,0.6666666666666666,Off,0,1,0,0,-1,false,false
20:02:39 GMT-0500 Sat Mar 12 2022,false,42,17.59896,-83,-42.602431,269.4375,0,0,0,0,0,0,0,0,0,0,0,0,undefined,0,42,17.598939999999857,-83,-42.60171000000082,999,1.8166666666666667,Off,0,1,0,0,-1,false,false
20:02:40 GMT-0500 Sat Mar 12 2022,false,42,17.59896,-83,-42.602437,269.4375,0,0,0,0,0,0,0,0,0,0,0,0,undefined,0,42,17.598939999999857,-83,-42.60172000000057,999,2.3666666666666667,Off,0,1,0,0,-1,false,false
20:02:40 GMT-0500 Sat Mar 12 2022,false,42,17.598959,-83,-42.602443,269.4375,0,0,0,0,0,0,0,0,0,0,0,0,undefined,0,42,17.598939999999857,-83,-42.60171000000082,999,1.3833333333333333,Off,0,1,0,0,-1,false,false
20:02:41 GMT-0500 Sat Mar 12 2022,false,42,17.598959,-83,-42.60245,269.4375,0,0,0,0,0,0,0,0,0,0,0,0,undefined,0,42,17.59893000000011,-83,-42.60171000000082,999,0.7333333333333333,Off,0,1,0,0,-1,false,false
20:02:41 GMT-0500 Sat Mar 12 2022,false,42,17.598958,-83,-42.602456,269.4375,0,0,0,0,0,0,0,0,0,0,0,0,undefined,0,42,17.598920000000362,-83,-42.60171000000082,999,0.4666666666666667,Off,0,1,0,0,-1,false,false
20:02:42 GMT-0500 Sat Mar 12 2022,false,42,17.598955,-83,-42.602484,262.9375,0,0,0,0,0,0,0,0,0,0,0,0,undefined,0,42,17.598920000000362,-83,-42.601699999999255,999,1.3833333333333333,Off,0,1,0,0,-1,false,false
20:02:42 GMT-0500 Sat Mar 12 2022,false,42,17.598951,-83,-42.602492,258.625,0,0,0,0,0,0,0,0,0,0,0,0,undefined,0,42,17.598909999999705,-83,-42.60171000000082,999,1.85,Off,0,1,0,0,-1,false,false
20:02:43 GMT-0500 Sat Mar 12 2022,false,42,17.598947,-83,-42.602499,258.75,0,0,0,0,0,0,0,0,0,0,0,0,undefined,0,42,17.598909999999705,-83,-42.60171000000082,999,0.7,Off,0,1,0,0,-1,false,false
20:02:43 GMT-0500 Sat Mar 12 2022,false,42,17.598945,-83,-42.602496,258.8125,0,0,0,0,0,0,0,0,0,0,0,0,undefined,0,42,17.598909999999705,-83,-42.60159999999996,77.38,42.233333333333334,Off,0,1,0,0,-1,false,false
20:02:44 GMT-0500 Sat Mar 12 2022,false,42,17.598943,-83,-42.602495,258.625,0,0,0,0,0,0,0,0,0,0,0,0,undefined,0,42,17.598909999999705,-83,-42.60153999999966,999,9.516666666666667,Off,0,1,0,0,-1,false,false
20:02:44 GMT-0500 Sat Mar 12 2022,false,42,17.59894,-83,-42.6025,258.4375,0,0,0,0,0,0,0,0,0,0,0,0,undefined,0,42,17.598899999999958,-83,-42.60158000000047,264.01,12.6,Off,0,1,0,0,-1,false,false
20:02:45 GMT-0500 Sat Mar 12 2022,false,42,17.598934,-83,-42.602518,258.5,0,0,0,0,0,0,0,0,0,0,0,0,undefined,0,42,17.59889000000021,-83,-42.60167000000001,255.96,15.583333333333334,Off,0,1,0,0,-1,false,false
20:02:45 GMT-0500 Sat Mar 12 2022,false,42,17.598931,-83,-42.602525,258.5,0,0,0,0,0,0,0,0,0,0,0,0,undefined,0,42,17.598879999999554,-83,-42.601769999999306,259.34,19.533333333333335,Off,0,1,0,0,-1,false,false
20:02:46 GMT-0500 Sat Mar 12 2022,false,42,17.598925,-83,-42.602547,258.5625,0,0,0,0,0,0,0,0,0,0,0,0,undefined,0,42,17.59886000000006,-83,-42.60187000000042,262.61,22.8,Off,0,1,0,0,-1,false,false
20:02:46 GMT-0500 Sat Mar 12 2022,false,42,17.59892,-83,-42.602566,258.4375,0,0,0,0,0,0,0,0,0,0,0,0,undefined,0,42,17.59885000000031,-83,-42.602020000000266,267.44,23.6,Off,0,1,0,0,-1,false,false
20:02:47 GMT-0500 Sat Mar 12 2022,false,42,17.598917,-83,-42.60257,258.375,0,0,0,0,0,0,0,0,0,0,0,0,undefined,0,42,17.598810000000412,-83,-42.60219999999936,261.04,36.28333333333333,Off,0,1,0,0,-1,false,false
20:02:47 GMT-0500 Sat Mar 12 2022,false,42,17.598911,-83,-42.602594,258.125,0,0,0,0,0,0,0,0,0,0,0,0,undefined,0,42,17.598769999999604,-83,-42.60240999999951,266.38,34.93333333333333,Off,0,1,0,0,-1,false,false
20:02:48 GMT-0500 Sat Mar 12 2022,false,42,17.598906,-83,-42.60261,261,0,0,0,0,0,0,0,0,0,0,0,0,undefined,0,42,17.598729999999705,-83,-42.60255999999936,253.86,35.516666666666666,Off,0,1,0,0,-1,false,false
20:02:48 GMT-0500 Sat Mar 12 2022,false,42,17.598902,-83,-42.602627,262.0625,0,0,0,0,0,0,0,0,0,0,0,0,undefined,0,42,17.59871000000021,-83,-42.60273000000052,258.59,34.21666666666667,Off,0,1,0,0,-1,false,false
20:02:49 GMT-0500 Sat Mar 12 2022,false,42,17.598896,-83,-42.602652,260,0,0,0,0,0,0,0,0,0,0,0,0,undefined,0,42,17.598689999999806,-83,-42.60284999999931,257.38,24.966666666666665,Off,0,1,0,0,-1,false,false
20:02:49 GMT-0500 Sat Mar 12 2022,false,42,17.598891,-83,-42.602671,260.5625,0,0,0,0,0,0,0,0,0,0,0,0,undefined,0,42,17.59868000000006,-83,-42.60289999999986,260.47,12.633333333333333,Off,0,1,0,0,-1,false,false
20:02:50 GMT-0500 Sat Mar 12 2022,false,42,17.598889,-83,-42.602669,260.0625,0,0,0,0,0,0,0,0,0,0,0,0,undefined,0,42,17.598659999999654,-83,-42.60306999999921,264.42,52.71666666666667,Off,0,1,0,0,-1,false,false
20:02:50 GMT-0500 Sat Mar 12 2022,false,42,17.598886,-83,-42.602671,260.8125,0,0,0,0,0,0,0,0,0,0,0,0,undefined,0,42,17.59864000000016,-83,-42.60337000000072,264.01,52.18333333333333,Off,0,1,0,0,-1,false,false
20:02:51 GMT-0500 Sat Mar 12 2022,false,42,17.598885,-83,-42.602663,257.5,0,0,0,0,0,0,0,0,0,0,0,0,undefined,0,42,17.598619999999755,-83,-42.60366000000067,267.7,54.63333333333333,Off,0,1,0,0,-1,false,false
20:02:51 GMT-0500 Sat Mar 12 2022,false,42,17.598881,-83,-42.60268,254.1875,0,0,0,0,0,0,0,0,0,0,0,0,undefined,0,42,17.59864000000016,-83,-42.60389000000032,314.31,14.35,Off,0,1,0,0,-1,false,false
20:02:52 GMT-0500 Sat Mar 12 2022,false,42,17.598878,-83,-42.602695,255.9375,0,0,0,0,0,0,0,0,0,0,0,0,undefined,0,42,17.59864000000016,-83,-42.604049999999916,266.14,27.283333333333335,Off,0,1,0,0,-1,false,false
20:02:52 GMT-0500 Sat Mar 12 2022,false,42,17.598877,-83,-42.602702,255.625,0,0,0,0,0,0,0,0,0,0,0,0,undefined,0,42,17.598630000000412,-83,-42.604300000000876,261.07,44.833333333333336,Off,0,1,0,0,-1,false,false
20:02:53 GMT-0500 Sat Mar 12 2022,false,42,17.598878,-83,-42.602701,255.5625,0,0,0,0,0,0,0,0,0,0,0,0,undefined,0,42,17.598579999999856,-83,-42.60461000000032,258.89,51.43333333333333,Off,0,1,0,0,-1,false,false
20:02:53 GMT-0500 Sat Mar 12 2022,false,42,17.59887,-83,-42.602751,256.0625,0,0,0,0,0,0,0,0,0,0,0,0,undefined,0,42,17.59853000000021,-83,-42.604919999999765,271.89,35.36666666666667,Off,0,1,0,0,-1,false,false
20:02:54 GMT-0500 Sat Mar 12 2022,false,42,17.598865,-83,-42.602784,255.8125,0,0,0,0,0,0,0,0,0,0,0,0,undefined,0,42,17.598479999999654,-83,-42.60524000000078,263.88,52.583333333333336,Off,0,1,0,0,-1,false,false
20:02:54 GMT-0500 Sat Mar 12 2022,false,42,17.598856,-83,-42.602837,255.3125,0,0,0,0,0,0,0,0,0,0,0,0,undefined,0,42,17.598450000000412,-83,-42.60547000000042,260.55,42.28333333333333,Off,0,1,0,0,-1,false,false
20:02:55 GMT-0500 Sat Mar 12 2022,false,42,17.598848,-83,-42.602885,255,0,0,0,0,0,0,0,0,0,0,0,0,undefined,0,42,17.598399999999856,-83,-42.60577999999987,261.36,48.166666666666664,Off,0,1,0,0,-1,false,false
20:02:55 GMT-0500 Sat Mar 12 2022,false,42,17.598843,-83,-42.602917,254.4375,0,0,0,0,0,0,0,0,0,0,0,0,undefined,0,42,17.598339999999553,-83,-42.60610000000088,256.5,51.1,Off,0,1,0,0,-1,false,false
20:02:56 GMT-0500 Sat Mar 12 2022,false,42,17.598845,-83,-42.602921,253.6875,0,0,0,0,0,0,0,0,0,0,0,0,undefined,0,42,17.59828000000016,-83,-42.606410000000324,255.83,49.35,Off,0,1,0,0,-1,false,false
20:02:56 GMT-0500 Sat Mar 12 2022,false,42,17.59884,-83,-42.602957,254,0,0,0,0,0,0,0,0,0,0,0,0,undefined,0,42,17.598229999999603,-83,-42.60671999999977,257.93,54.083333333333336,Off,0,1,0,0,-1,false,false
20:02:57 GMT-0500 Sat Mar 12 2022,false,42,17.598831,-83,-42.603012,253.9375,0,0,0,0,0,0,0,0,0,0,0,0,undefined,0,42,17.59820000000036,-83,-42.606879999999364,999,6.033333333333333,Off,0,1,0,0,-1,false,false
20:02:57 GMT-0500 Sat Mar 12 2022,false,42,17.598824,-83,-42.60305,253.6875,0,0,0,0,0,0,0,0,0,0,0,0,undefined,0,42,17.598189999999704,-83,-42.606879999999364,999,1.5166666666666666,Off,0,1,0,0,-1,false,false
20:02:58 GMT-0500 Sat Mar 12 2022,false,42,17.598817,-83,-42.603098,254.5625,0,0,0,0,0,0,0,0,0,0,0,0,undefined,0,42,17.59817000000021,-83,-42.60695999999916,253.79,38.516666666666666,Off,0,1,0,0,-1,false,false
20:02:58 GMT-0500 Sat Mar 12 2022,false,42,17.598809,-83,-42.603147,254.0625,0,0,0,0,0,0,0,0,0,0,0,0,undefined,0,42,17.598119999999653,-83,-42.60722999999962,257.08,42.86666666666667,Off,0,1,0,0,-1,false,false
20:02:59 GMT-0500 Sat Mar 12 2022,false,42,17.598799,-83,-42.603206,256.5625,0,0,0,0,0,0,0,0,0,0,0,0,undefined,0,42,17.59806000000026,-83,-42.60750000000007,256.98,44.766666666666666,Off,0,1,0,0,-1,false,false
20:02:59 GMT-0500 Sat Mar 12 2022,false,42,17.598791,-83,-42.603252,256.375,0,0,0,0,0,0,0,0,0,0,0,0,undefined,0,42,17.597999999999956,-83,-42.60779000000002,252.04,44.2,Off,0,1,0,0,-1,false,false
20:03:00 GMT-0500 Sat Mar 12 2022,false,42,17.598777,-83,-42.603322,247.375,0,0,0,0,0,0,0,0,0,0,0,0,undefined,0,42,17.597960000000057,-83,-42.60801999999967,259.47,38.96666666666667,Off,0,1,0,0,-1,false,false
20:03:00 GMT-0500 Sat Mar 12 2022,false,42,17.59876,-83,-42.603404,245.3125,0,0,0,0,0,0,0,0,0,0,0,0,undefined,0,42,17.597929999999906,-83,-42.60827000000063,259.99,49.81666666666667,Off,0,1,0,0,-1,false,false
20:03:01 GMT-0500 Sat Mar 12 2022,false,42,17.598748,-83,-42.603471,244.6875,0,0,0,0,0,0,0,0,0,0,0,0,undefined,0,42,17.59788000000026,-83,-42.60843999999997,251.84,33.8,Off,0,1,0,0,-1,false,false
20:03:01 GMT-0500 Sat Mar 12 2022,false,42,17.598737,-83,-42.603537,243.875,0,0,0,0,0,0,0,0,0,0,0,0,undefined,0,42,17.597799999999552,-83,-42.60872999999992,250.81,54.65,Off,0,1,0,0,-1,false,false
20:03:02 GMT-0500 Sat Mar 12 2022,false,42,17.598729,-83,-42.603596,244.0625,0,0,0,0,0,0,0,0,0,0,0,0,undefined,0,42,17.59770000000026,-83,-42.609049999999115,253,60.8,Off,0,1,0,0,-1,false,false
20:03:02 GMT-0500 Sat Mar 12 2022,false,42,17.598725,-83,-42.603635,243.375,0,0,0,0,0,0,0,0,0,0,0,0,undefined,0,42,17.597600000000057,-83,-42.60932999999932,250.29,47.31666666666667,Off,0,1,0,0,-1,false,false
20:03:03 GMT-0500 Sat Mar 12 2022,false,42,17.598703,-83,-42.603729,243.3125,0,0,0,0,0,0,0,0,0,0,0,0,undefined,0,42,17.597499999999854,-83,-42.60965000000033,242.42,46.13333333333333,Off,0,1,0,0,-1,false,false
20:03:03 GMT-0500 Sat Mar 12 2022,false,42,17.59869,-83,-42.603799,242.875,0,0,0,0,0,0,0,0,0,0,0,0,undefined,0,42,17.597389999999905,-83,-42.609950000000026,241.93,57.016666666666666,Off,0,1,0,0,-1,false,false
20:03:04 GMT-0500 Sat Mar 12 2022,false,42,17.59867,-83,-42.60389,242.5625,0,0,0,0,0,0,0,0,0,0,0,0,undefined,0,42,17.597289999999703,-83,-42.61023000000023,243.26,51.93333333333333,Off,0,1,0,0,-1,false,false
20:03:04 GMT-0500 Sat Mar 12 2022,false,42,17.598658,-83,-42.603959,242.25,0,0,0,0,0,0,0,0,0,0,0,0,undefined,0,42,17.59719000000041,-83,-42.61052000000018,241.59,52.583333333333336,Off,0,1,0,0,-1,false,false
20:03:05 GMT-0500 Sat Mar 12 2022,false,42,17.598647,-83,-42.604017,242.125,0,0,0,0,0,0,0,0,0,0,0,0,undefined,0,42,17.59712000000036,-83,-42.61072000000058,245.82,39.63333333333333,Off,0,1,0,0,-1,false,false
20:03:05 GMT-0500 Sat Mar 12 2022,false,42,17.598633,-83,-42.604089,242.1875,0,0,0,0,0,0,0,0,0,0,0,0,undefined,0,42,17.597020000000157,-83,-42.61103000000003,246.64,58.56666666666667,Off,0,1,0,0,-1,false,false
20:03:06 GMT-0500 Sat Mar 12 2022,false,42,17.59863,-83,-42.604136,241.25,0,0,0,0,0,0,0,0,0,0,0,0,undefined,0,42,17.596919999999955,-83,-42.61127999999917,240.93,54.233333333333334,Off,0,1,0,0,-1,false,false
20:03:06 GMT-0500 Sat Mar 12 2022,false,42,17.598604,-83,-42.604239,241.5,0,0,0,0,0,0,0,0,0,0,0,0,undefined,0,42,17.596840000000157,-83,-42.61153000000013,240.29,54.733333333333334,Off,0,1,0,0,-1,false,false
20:03:07 GMT-0500 Sat Mar 12 2022,false,42,17.59858,-83,-42.604335,241.25,0,0,0,0,0,0,0,0,0,0,0,0,undefined,0,42,17.59671999999955,-83,-42.61182999999983,238.6,56.083333333333336,Off,0,1,0,0,-1,false,false
20:03:07 GMT-0500 Sat Mar 12 2022,false,42,17.598561,-83,-42.604415,241.25,0,0,0,0,0,0,0,0,0,0,0,0,undefined,0,42,17.59667999999965,-83,-42.61199999999917,999,7.966666666666667,Off,0,1,0,0,-1,false,false
20:03:08 GMT-0500 Sat Mar 12 2022,false,42,17.598536,-83,-42.604514,241.25,0,0,0,0,0,0,0,0,0,0,0,0,undefined,0,42,17.596669999999904,-83,-42.61201000000074,999,0.4666666666666667,Off,0,1,0,0,-1,false,false
20:03:08 GMT-0500 Sat Mar 12 2022,false,42,17.598512,-83,-42.604612,241.25,0,0,0,0,0,0,0,0,0,0,0,0,undefined,0,42,17.596669999999904,-83,-42.612020000000484,999,2.683333333333333,Off,0,1,0,0,-1,false,false
20:03:09 GMT-0500 Sat Mar 12 2022,false,42,17.598488,-83,-42.604708,241.25,0,0,0,0,0,0,0,0,0,0,0,0,undefined,0,42,17.596669999999904,-83,-42.61201000000074,999,2.0833333333333335,Off,0,1,0,0,-1,false,false
20:03:09 GMT-0500 Sat Mar 12 2022,false,42,17.598464,-83,-42.604803,241.25,0,0,0,0,0,0,0,0,0,0,0,0,undefined,0,42,17.596669999999904,-83,-42.61201000000074,999,0.8833333333333333,Off,0,1,0,0,-1,false,false
20:03:10 GMT-0500 Sat Mar 12 2022,false,42,17.598445,-83,-42.604878,241.25,0,0,0,0,0,0,0,0,0,0,0,0,undefined,0,42,17.596669999999904,-83,-42.61201000000074,999,1.3166666666666667,Off,0,1,0,0,-1,false,false
20:03:10 GMT-0500 Sat Mar 12 2022,false,42,17.598422,-83,-42.60497,241.25,0,0,0,0,0,0,0,0,0,0,0,0,undefined,0,42,17.596669999999904,-83,-42.61201000000074,999,1.7833333333333334,Off,0,1,0,0,-1,false,false
20:03:11 GMT-0500 Sat Mar 12 2022,false,42,17.5984,-83,-42.605061,241.25,0,0,0,0,0,0,0,0,0,0,0,0,undefined,0,42,17.596669999999904,-83,-42.61201000000074,999,1.5166666666666666,Off,0,1,0,0,-1,false,false
20:03:11 GMT-0500 Sat Mar 12 2022,false,42,17.598377,-83,-42.60515,241.25,0,0,0,0,0,0,0,0,0,0,0,0,undefined,0,42,17.596660000000156,-83,-42.61201000000074,999,1.8666666666666667,Off,0,1,0,0,-1,false,false
20:03:12 GMT-0500 Sat Mar 12 2022,false,42,17.598355,-83,-42.605238,241.25,0,0,0,0,0,0,0,0,0,0,0,0,undefined,0,42,17.596660000000156,-83,-42.61201000000074,999,1.2333333333333334,Off,0,1,0,0,-1,false,false
20:03:12 GMT-0500 Sat Mar 12 2022,false,42,17.598338,-83,-42.605308,241.25,0,0,0,0,0,0,0,0,0,0,0,0,undefined,0,42,17.596660000000156,-83,-42.61201000000074,999,2.1166666666666667,Off,0,1,0,0,-1,false,false
20:03:13 GMT-0500 Sat Mar 12 2022,false,42,17.598317,-83,-42.605393,241.25,0,0,0,0,0,0,0,0,0,0,0,0,undefined,0,42,17.596660000000156,-83,-42.61201000000074,999,1.9333333333333333,Off,0,1,0,0,-1,false,false
20:03:13 GMT-0500 Sat Mar 12 2022,false,42,17.598295,-83,-42.605478,241.25,0,0,0,0,0,0,0,0,0,0,0,0,undefined,0,42,17.596660000000156,-83,-42.61201000000074,999,2.3333333333333335,Off,0,1,0,0,-1,false,false
20:03:14 GMT-0500 Sat Mar 12 2022,false,42,17.598275,-83,-42.605561,241.25,0,0,0,0,0,0,0,0,0,0,0,0,undefined,0,42,17.59665000000041,-83,-42.61201000000074,999,1.0666666666666667,Off,0,1,0,0,-1,false,false
20:03:14 GMT-0500 Sat Mar 12 2022,false,42,17.598254,-83,-42.605643,241.25,0,0,0,0,0,0,0,0,0,0,0,0,undefined,0,42,17.59665000000041,-83,-42.61201000000074,999,0.08333333333333333,Off,0,1,0,0,-1,false,false
20:03:15 GMT-0500 Sat Mar 12 2022,false,42,17.598234,-83,-42.605723,241.25,0,0,0,0,0,0,0,0,0,0,0,0,undefined,0,42,17.59665000000041,-83,-42.612020000000484,999,0.2833333333333333,Off,0,1,0,0,-1,false,false
20:03:15 GMT-0500 Sat Mar 12 2022,false,42,17.598218,-83,-42.605787,241.25,0,0,0,0,0,0,0,0,0,0,0,0,undefined,0,42,17.596639999999752,-83,-42.612020000000484,999,1.8833333333333333,Off,0,1,0,0,-1,false,false
20:03:16 GMT-0500 Sat Mar 12 2022,false,42,17.598198,-83,-42.605866,241.25,0,0,0,0,0,0,0,0,0,0,0,0,undefined,0,42,17.596639999999752,-83,-42.612020000000484,999,1.5,Off,0,1,0,0,-1,false,false
20:03:16 GMT-0500 Sat Mar 12 2022,false,42,17.598178,-83,-42.605943,241.25,0,0,0,0,0,0,0,0,0,0,0,0,undefined,0,42,17.596639999999752,-83,-42.612020000000484,999,0.6833333333333333,Off,0,1,0,0,-1,false,false
20:03:17 GMT-0500 Sat Mar 12 2022,false,42,17.598159,-83,-42.60602,241.25,0,0,0,0,0,0,0,0,0,0,0,0,undefined,0,42,17.596639999999752,-83,-42.612020000000484,999,2.216666666666667,Off,0,1,0,0,-1,false,false
20:03:17 GMT-0500 Sat Mar 12 2022,false,42,17.59814,-83,-42.606095,241.25,0,0,0,0,0,0,0,0,0,0,0,0,undefined,0,42,17.596639999999752,-83,-42.612020000000484,999,1.1333333333333333,Off,0,1,0,0,-1,false,false
20:03:18 GMT-0500 Sat Mar 12 2022,false,42,17.598125,-83,-42.606155,241.25,0,0,0,0,0,0,0,0,0,0,0,0,undefined,0,42,17.596639999999752,-83,-42.61203000000023,999,1.8833333333333333,Off,0,1,0,0,-1,false,false
20:03:18 GMT-0500 Sat Mar 12 2022,false,42,17.598106,-83,-42.606228,241.25,0,0,0,0,0,0,0,0,0,0,0,0,undefined,0,42,17.596639999999752,-83,-42.61203000000023,999,1.3166666666666667,Off,0,1,0,0,-1,false,false
20:03:19 GMT-0500 Sat Mar 12 2022,false,42,17.598088,-83,-42.6063,241.25,0,0,0,0,0,0,0,0,0,0,0,0,undefined,0,42,17.596639999999752,-83,-42.61203000000023,999,0.8833333333333333,Off,0,1,0,0,-1,false,false
20:03:19 GMT-0500 Sat Mar 12 2022,false,42,17.59807,-83,-42.606372,241.25,0,0,0,0,0,0,0,0,0,0,0,0,undefined,0,42,17.59665000000041,-83,-42.61203000000023,999,1.3166666666666667,Off,0,1,0,0,-1,false,false
20:03:20 GMT-0500 Sat Mar 12 2022,false,42,17.598052,-83,-42.606442,241.25,0,0,0,0,0,0,0,0,0,0,0,0,undefined,0,42,17.59665000000041,-83,-42.61203000000023,999,3.2333333333333334,Off,0,1,0,0,-1,false,false
20:03:20 GMT-0500 Sat Mar 12 2022,false,42,17.598038,-83,-42.606498,241.25,0,0,0,0,0,0,0,0,0,0,0,0,undefined,0,42,17.596660000000156,-83,-42.61203999999998,999,1.9333333333333333,Off,0,1,0,0,-1,false,false
20:03:21 GMT-0500 Sat Mar 12 2022,false,42,17.598021,-83,-42.606567,241.25,0,0,0,0,0,0,0,0,0,0,0,0,undefined,0,42,17.596660000000156,-83,-42.61203999999998,999,2.316666666666667,Off,0,1,0,0,-1,false,false
20:03:21 GMT-0500 Sat Mar 12 2022,false,42,17.598004,-83,-42.606634,241.25,0,0,0,0,0,0,0,0,0,0,0,0,undefined,0,42,17.596660000000156,-83,-42.61203999999998,999,2.0833333333333335,Off,0,1,0,0,-1,false,false
20:03:22 GMT-0500 Sat Mar 12 2022,false,42,17.597988,-83,-42.606701,241.25,0,0,0,0,0,0,0,0,0,0,0,0,undefined,0,42,17.596660000000156,-83,-42.61203999999998,999,0.43333333333333335,Off,0,1,0,0,-1,false,false
20:03:22 GMT-0500 Sat Mar 12 2022,false,42,17.597975,-83,-42.606754,241.25,0,0,0,0,0,0,0,0,0,0,0,0,undefined,0,42,17.596660000000156,-83,-42.61203999999998,999,1.7666666666666666,Off,0,1,0,0,-1,false,false
20:03:23 GMT-0500 Sat Mar 12 2022,false,42,17.597958,-83,-42.606819,241.25,0,0,0,0,0,0,0,0,0,0,0,0,undefined,0,42,17.596660000000156,-83,-42.61203999999998,999,0.7,Off,0,1,0,0,-1,false,false
20:03:23 GMT-0500 Sat Mar 12 2022,false,42,17.597943,-83,-42.606883,241.25,0,0,0,0,0,0,0,0,0,0,0,0,undefined,0,42,17.596660000000156,-83,-42.61203999999998,999,1.3333333333333333,Off,0,1,0,0,-1,false,false
20:03:24 GMT-0500 Sat Mar 12 2022,false,42,17.597927,-83,-42.606947,241.25,0,0,0,0,0,0,0,0,0,0,0,0,undefined,0,42,17.59665000000041,-83,-42.61203999999998,999,1.3333333333333333,Off,0,1,0,0,-1,false,false
20:03:24 GMT-0500 Sat Mar 12 2022,false,42,17.597912,-83,-42.607007,239.1875,0,0,0,0,0,0,0,0,0,0,0,0,undefined,0,42,17.59665000000041,-83,-42.61203999999998,999,2.0166666666666666,Off,0,1,0,0,-1,false,false
20:03:25 GMT-0500 Sat Mar 12 2022,false,42,17.5979,-83,-42.607056,226.8125,0,0,0,0,0,0,0,0,0,0,0,0,undefined,0,42,17.596639999999752,-83,-42.61203999999998,999,0.43333333333333335,Off,0,1,0,0,-1,false,false
20:03:25 GMT-0500 Sat Mar 12 2022,false,42,17.597903,-83,-42.607112,196.625,0,0,0,0,0,0,0,0,0,0,0,0,undefined,0,42,17.596639999999752,-83,-42.61203999999998,999,1.55,Off,0,1,0,0,-1,false,false
20:03:26 GMT-0500 Sat Mar 12 2022,false,42,17.597909,-83,-42.607165,194.375,0,0,0,0,0,0,0,0,0,0,0,0,undefined,0,42,17.596639999999752,-83,-42.61203999999998,999,1.3333333333333333,Off,0,1,0,0,-1,false,false
20:03:26 GMT-0500 Sat Mar 12 2022,false,42,17.597912,-83,-42.607218,195,0,0,0,0,0,0,0,0,0,0,0,0,undefined,0,42,17.596620000000257,-83,-42.61208000000079,999,11.516666666666667,Off,0,1,0,0,-1,false,false
20:03:27 GMT-0500 Sat Mar 12 2022,false,42,17.597894,-83,-42.607279,194.5,0,0,0,0,0,0,0,0,0,0,0,0,undefined,0,42,17.596550000000207,-83,-42.61213999999927,204.17,15.083333333333334,Off,0,1,0,0,-1,false,false
20:03:27 GMT-0500 Sat Mar 12 2022,false,42,17.59788,-83,-42.607326,194.3125,0,0,0,0,0,0,0,0,0,0,0,0,undefined,0,42,17.5963899999997,-83,-42.612199999999575,199.85,45.96666666666667,Off,0,1,0,0,-1,false,false
20:03:28 GMT-0500 Sat Mar 12 2022,false,42,17.597877,-83,-42.607381,193.4375,0,0,0,0,0,0,0,0,0,0,0,0,undefined,0,42,17.596260000000257,-83,-42.612240000000384,178.72,11.683333333333334,Off,0,1,0,0,-1,false,false
20:03:28 GMT-0500 Sat Mar 12 2022,false,42,17.5979,-83,-42.60743,186.8125,0,0,0,0,0,0,0,0,0,0,0,0,undefined,0,42,17.596160000000054,-83,-42.612269999999626,192.05,40.266666666666666,Off,0,1,0,0,-1,false,false
20:03:29 GMT-0500 Sat Mar 12 2022,false,42,17.597909,-83,-42.607485,185.375,0,0,0,0,0,0,0,0,0,0,0,0,undefined,0,42,17.595930000000408,-83,-42.61235999999917,198.53,57.266666666666666,Off,0,1,0,0,-1,false,false
20:03:29 GMT-0500 Sat Mar 12 2022,false,42,17.597894,-83,-42.607544,184.0625,0,0,0,0,0,0,0,0,0,0,0,0,undefined,0,42,17.59569999999985,-83,-42.612450000000536,195,54.166666666666664,Off,0,1,0,0,-1,false,false
20:03:30 GMT-0500 Sat Mar 12 2022,false,42,17.597874,-83,-42.607589,169.8125,0,0,0,0,0,0,0,0,0,0,0,0,undefined,0,42,17.595500000000357,-83,-42.61253000000033,199.53,38,Off,0,1,0,0,-1,false,false
20:03:30 GMT-0500 Sat Mar 12 2022,false,42,17.597867,-83,-42.607648,189.5,0,0,0,0,0,0,0,0,0,0,0,0,undefined,0,42,17.5953099999997,-83,-42.612559999999576,186.44,49.15,Off,0,1,0,0,-1,false,false
20:03:31 GMT-0500 Sat Mar 12 2022,false,42,17.597833,-83,-42.607706,215.4375,0,0,0,0,0,0,0,0,0,0,0,0,undefined,0,42,17.595099999999547,-83,-42.61259000000064,184.32,33.266666666666666,Off,0,1,0,0,-1,false,false
20:03:31 GMT-0500 Sat Mar 12 2022,false,42,17.597816,-83,-42.607747,217.75,0,0,0,0,0,0,0,0,0,0,0,0,undefined,0,42,17.595070000000305,-83,-42.612600000000384,195.37,21.366666666666667,Off,0,1,0,0,-1,false,false
20:03:32 GMT-0500 Sat Mar 12 2022,false,42,17.597782,-83,-42.607807,217.75,0,0,0,0,0,0,0,0,0,0,0,0,undefined,0,42,17.595040000000154,-83,-42.612600000000384,999,8.966666666666667,Off,0,1,0,0,-1,false,false
20:03:32 GMT-0500 Sat Mar 12 2022,false,42,17.597755,-83,-42.607854,217.9375,0,0,0,0,0,0,0,0,0,0,0,0,undefined,0,42,17.59511999999995,-83,-42.61253000000033,51,20.35,Off,0,1,0,0,-1,false,false
20:03:33 GMT-0500 Sat Mar 12 2022,false,42,17.597759,-83,-42.607873,217.5,0,0,0,0,0,0,0,0,0,0,0,0,undefined,0,42,17.595070000000305,-83,-42.61256999999932,221.29,38.9,Off,0,1,0,0,-1,false,false
20:03:33 GMT-0500 Sat Mar 12 2022,false,42,17.597718,-83,-42.607935,208.875,0,0,0,0,0,0,0,0,0,0,0,0,undefined,0,42,17.594890000000305,-83,-42.61275999999998,219.24,46.36666666666667,Off,0,1,0,0,-1,false,false
20:03:34 GMT-0500 Sat Mar 12 2022,false,42,17.597716,-83,-42.607991,175.9375,0,0,0,0,0,0,0,0,0,0,0,0,undefined,0,42,17.594699999999648,-83,-42.612960000000385,217.16,57.8,Off,0,1,0,0,-1,false,false
20:03:34 GMT-0500 Sat Mar 12 2022,false,42,17.597655,-83,-42.608041,148.625,0,0,0,0,0,0,0,0,0,0,0,0,undefined,0,42,17.594519999999648,-83,-42.613180000000284,223.4,56.25,Off,0,1,0,0,-1,false,false
20:03:35 GMT-0500 Sat Mar 12 2022,false,42,17.597625,-83,-42.608092,148.8125,0,0,0,0,0,0,0,0,0,0,0,0,undefined,0,42,17.594430000000102,-83,-42.61326999999983,999,7.333333333333333,Off,0,1,0,0,-1,false,false
20:03:35 GMT-0500 Sat Mar 12 2022,false,42,17.597594,-83,-42.60816,148.6875,0,0,0,0,0,0,0,0,0,0,0,0,undefined,0,42,17.594379999999546,-83,-42.613359999999375,238.6,28.45,Off,0,1,0,0,-1,false,false
20:03:36 GMT-0500 Sat Mar 12 2022,false,42,17.597552,-83,-42.608219,136.625,0,0,0,0,0,0,0,0,0,0,0,0,undefined,0,42,17.594280000000253,-83,-42.61340000000018,197.49,14.466666666666667,Off,0,1,0,0,-1,false,false
20:03:36 GMT-0500 Sat Mar 12 2022,false,42,17.597513,-83,-42.608282,132.5,0,0,0,0,0,0,0,0,0,0,0,0,undefined,0,42,17.594159999999647,-83,-42.61333999999988,131.4,37.18333333333333,Off,0,1,0,0,-1,false,false
20:03:37 GMT-0500 Sat Mar 12 2022,false,42,17.59748,-83,-42.608357,121.375,0,0,0,0,0,0,0,0,0,0,0,0,undefined,0,42,17.5939699999999,-83,-42.61319000000003,145.61,48.68333333333333,Off,0,1,0,0,-1,false,false
20:03:37 GMT-0500 Sat Mar 12 2022,false,42,17.597439,-83,-42.60843,85.5625,0,0,0,0,0,0,0,0,0,0,0,0,undefined,0,42,17.593960000000152,-83,-42.61319000000003,999,1.6,Off,0,1,0,0,-1,false,false
20:03:38 GMT-0500 Sat Mar 12 2022,false,42,17.597391,-83,-42.608558,70.375,0,0,0,0,0,0,0,0,0,0,0,0,undefined,0,42,17.59389999999985,-83,-42.613180000000284,184.22,15.766666666666667,Off,0,1,0,0,-1,false,false
20:03:38 GMT-0500 Sat Mar 12 2022,false,42,17.597353,-83,-42.6086,70.875,0,0,0,0,0,0,0,0,0,0,0,0,undefined,0,42,17.5938900000001,-83,-42.613180000000284,999,5.833333333333333,Off,0,1,0,0,-1,false,false
20:03:39 GMT-0500 Sat Mar 12 2022,false,42,17.597309,-83,-42.608666,70.4375,0,0,0,0,0,0,0,0,0,0,0,0,undefined,0,42,17.593850000000202,-83,-42.61314999999922,161.05,18.883333333333333,Off,0,1,0,0,-1,false,false
20:03:39 GMT-0500 Sat Mar 12 2022,false,42,17.597264,-83,-42.608729,70.4375,0,0,0,0,0,0,0,0,0,0,0,0,undefined,0,42,17.593770000000404,-83,-42.613069999999425,154.24,18.7,Off,0,1,0,0,-1,false,false
20:03:40 GMT-0500 Sat Mar 12 2022,false,42,17.597219,-83,-42.608796,71.75,0,0,0,0,0,0,0,0,0,0,0,0,undefined,0,42,17.593770000000404,-83,-42.61297999999988,75.37,24.9,Off,0,1,0,0,-1,false,false
20:03:40 GMT-0500 Sat Mar 12 2022,false,42,17.597186,-83,-42.608819,90.0625,0,0,0,0,0,0,0,0,0,0,0,0,undefined,0,42,17.593839999999545,-83,-42.61269999999968,77.02,52.21666666666667,Off,0,1,0,0,-1,false,false
20:03:41 GMT-0500 Sat Mar 12 2022,false,42,17.597151,-83,-42.608902,97.3125,0,0,0,0,0,0,0,0,0,0,0,0,undefined,0,42,17.59393,-83,-42.612419999999474,67.71,56.28333333333333,Off,0,1,0,0,-1,false,false
20:03:41 GMT-0500 Sat Mar 12 2022,false,42,17.597117,-83,-42.608981,96.9375,0,0,0,0,0,0,0,0,0,0,0,0,undefined,0,42,17.59400000000005,-83,-42.61218999999983,68.16,48.333333333333336,Off,0,1,0,0,-1,false,false
20:03:42 GMT-0500 Sat Mar 12 2022,false,42,17.59708,-83,-42.609027,95.75,0,0,0,0,0,0,0,0,0,0,0,0,undefined,0,42,17.593990000000304,-83,-42.61218999999983,999,2.8833333333333333,Off,0,1,0,0,-1,false,false
20:03:42 GMT-0500 Sat Mar 12 2022,false,42,17.597043,-83,-42.609058,94.875,0,0,0,0,0,0,0,0,0,0,0,0,undefined,0,42,17.593990000000304,-83,-42.61230000000069,284.7,19.866666666666667,Off,0,1,0,0,-1,false,false
20:03:43 GMT-0500 Sat Mar 12 2022,false,42,17.597015,-83,-42.609104,93.4375,0,0,0,0,0,0,0,0,0,0,0,0,undefined,0,42,17.593990000000304,-83,-42.612230000000636,90.64,35.166666666666664,Off,0,1,0,0,-1,false,false
20:03:43 GMT-0500 Sat Mar 12 2022,false,42,17.59698,-83,-42.609154,91.125,0,0,0,0,0,0,0,0,0,0,0,0,undefined,0,42,17.593950000000405,-83,-42.611950000000434,98.7,46.766666666666666,Off,0,1,0,0,-1,false,false
20:03:44 GMT-0500 Sat Mar 12 2022,false,42,17.596944,-83,-42.609187,83.0625,0,0,0,0,0,0,0,0,0,0,0,0,undefined,0,42,17.593909999999596,-83,-42.61160000000018,125.64,28.333333333333332,Off,0,1,0,0,-1,false,false
20:03:44 GMT-0500 Sat Mar 12 2022,false,42,17.596909,-83,-42.609207,84.75,0,0,0,0,0,0,0,0,0,0,0,0,undefined,0,42,17.5938900000001,-83,-42.61127999999917,100.99,81.91666666666667,Off,0,1,0,0,-1,false,false
20:03:45 GMT-0500 Sat Mar 12 2022,false,42,17.596881,-83,-42.609205,87.5,0,0,0,0,0,0,0,0,0,0,0,0,undefined,0,42,17.5938900000001,-83,-42.61114000000089,112.8,18.216666666666665,Off,0,1,0,0,-1,false,false
20:03:45 GMT-0500 Sat Mar 12 2022,false,42,17.596846,-83,-42.609236,93.5625,0,0,0,0,0,0,0,0,0,0,0,0,undefined,0,42,17.593880000000354,-83,-42.61087000000043,90.03,38.833333333333336,Off,0,1,0,0,-1,false,false
20:03:46 GMT-0500 Sat Mar 12 2022,false,42,17.596812,-83,-42.609273,97.875,0,0,0,0,0,0,0,0,0,0,0,0,undefined,0,42,17.593869999999697,-83,-42.610640000000785,77.36,49.2,Off,0,1,0,0,-1,false,false
20:03:46 GMT-0500 Sat Mar 12 2022,false,42,17.596784,-83,-42.609335,101.1875,0,0,0,0,0,0,0,0,0,0,0,0,undefined,0,42,17.59389999999985,-83,-42.610420000000886,72.9,47.733333333333334,Off,0,1,0,0,-1,false,false
20:03:47 GMT-0500 Sat Mar 12 2022,false,42,17.596755,-83,-42.60938,100.125,0,0,0,0,0,0,0,0,0,0,0,0,undefined,0,42,17.59389999999985,-83,-42.61023000000023,92.21,31.783333333333335,Off,0,1,0,0,-1,false,false
20:03:47 GMT-0500 Sat Mar 12 2022,false,42,17.596721,-83,-42.60939,99.8125,0,0,0,0,0,0,0,0,0,0,0,0,undefined,0,42,17.59389999999985,-83,-42.61003999999957,94.22,36.68333333333333,Off,0,1,0,0,-1,false,false
20:03:48 GMT-0500 Sat Mar 12 2022,false,42,17.596692,-83,-42.609428,99.4375,0,0,0,0,0,0,0,0,0,0,0,0,undefined,0,42,17.5938900000001,-83,-42.60982999999942,96.6,41.45,Off,0,1,0,0,-1,false,false
20:03:48 GMT-0500 Sat Mar 12 2022,false,42,17.596669,-83,-42.609457,98.75,0,0,0,0,0,0,0,0,0,0,0,0,undefined,0,42,17.593869999999697,-83,-42.609669999999824,99.18,32.28333333333333,Off,0,1,0,0,-1,false,false
20:03:49 GMT-0500 Sat Mar 12 2022,false,42,17.596634,-83,-42.609443,98.625,0,0,0,0,0,0,0,0,0,0,0,0,undefined,0,42,17.593839999999545,-83,-42.60938999999962,95.56,60.88333333333333,Off,0,1,0,0,-1,false,false
20:03:49 GMT-0500 Sat Mar 12 2022,false,42,17.596602,-83,-42.609446,98.6875,0,0,0,0,0,0,0,0,0,0,0,0,undefined,0,42,17.593810000000303,-83,-42.609089999999924,94.91,53.03333333333333,Off,0,1,0,0,-1,false,false
20:03:50 GMT-0500 Sat Mar 12 2022,false,42,17.59657,-83,-42.609446,98.75,0,0,0,0,0,0,0,0,0,0,0,0,undefined,0,42,17.59378000000015,-83,-42.608759999999165,92.97,59.1,Off,0,1,0,0,-1,false,false
20:03:50 GMT-0500 Sat Mar 12 2022,false,42,17.596538,-83,-42.609448,98.75,0,0,0,0,0,0,0,0,0,0,0,0,undefined,0,42,17.593740000000253,-83,-42.60844999999972,96.44,55.166666666666664,Off,0,1,0,0,-1,false,false
20:03:51 GMT-0500 Sat Mar 12 2022,false,42,17.596507,-83,-42.609445,98.75,0,0,0,0,0,0,0,0,0,0,0,0,undefined,0,42,17.59371999999985,-83,-42.60812000000078,92.66,53.43333333333333,Off,0,1,0,0,-1,false,false
20:03:51 GMT-0500 Sat Mar 12 2022,false,42,17.596481,-83,-42.609441,98.8125,0,0,0,0,0,0,0,0,0,0,0,0,undefined,0,42,17.5937100000001,-83,-42.60802999999942,999,4.216666666666667,Off,0,1,0,0,-1,false,false
20:03:52 GMT-0500 Sat Mar 12 2022,false,42,17.59645,-83,-42.609435,98.8125,0,0,0,0,0,0,0,0,0,0,0,0,undefined,0,42,17.593700000000354,-83,-42.60802999999942,999,1.8,Off,0,1,0,0,-1,false,false
20:03:52 GMT-0500 Sat Mar 12 2022,false,42,17.596419,-83,-42.60943,98.8125,0,0,0,0,0,0,0,0,0,0,0,0,undefined,0,42,17.593689999999697,-83,-42.60802999999942,999,3.1666666666666665,Off,0,1,0,0,-1,false,false
20:03:53 GMT-0500 Sat Mar 12 2022,false,42,17.596389,-83,-42.609425,98.8125,0,0,0,0,0,0,0,0,0,0,0,0,undefined,0,42,17.59367999999995,-83,-42.60801999999967,999,1.25,Off,0,1,0,0,-1,false,false
20:03:53 GMT-0500 Sat Mar 12 2022,false,42,17.596358,-83,-42.60942,98.8125,0,0,0,0,0,0,0,0,0,0,0,0,undefined,0,42,17.593670000000202,-83,-42.60801999999967,999,1.6833333333333333,Off,0,1,0,0,-1,false,false
20:03:54 GMT-0500 Sat Mar 12 2022,true,42,17.596334,-83,-42.609416,98.8125,0,0,0,0,0,0,0,0,0,0,0,0,undefined,0,42,17.593670000000202,-83,-42.60801999999967,999,0.7666666666666667,Off,0,1,0,0,-1,false,false
20:03:54 GMT-0500 Sat Mar 12 2022,true,42,17.596305,-83,-42.609417,92.375,0,0,0,0,0,0,0,0,0,0,0,0,undefined,0,42,17.593660000000455,-83,-42.60801999999967,999,1.4833333333333334,Turn,0,1,0,-0.5,-1,false,false
20:03:55 GMT-0500 Sat Mar 12 2022,true,42,17.596276,-83,-42.609399,77.625,0,0,0,0,0,0,0,0,0,0,0,0,undefined,0,42,17.593649999999798,-83,-42.60801999999967,999,2.45,Turn,0,1,0,-0.5,-1,false,false
20:03:55 GMT-0500 Sat Mar 12 2022,true,42,17.596241,-83,-42.609399,66.4375,0,0,0,0,0,0,0,0,0,0,0,0,undefined,0,42,17.59364000000005,-83,-42.60802999999942,999,1.7666666666666666,Turn,0,1,0,-0.5,-1,false,false
20:03:56 GMT-0500 Sat Mar 12 2022,true,42,17.596167,-83,-42.609331,51.75,0.22723080533871293,0,0,0,0,0,0,0,0,0,0,0,undefined,0,42,17.593630000000303,-83,-42.60802999999942,999,2.1666666666666665,Drive,0,1,1,-0.08007687038041342,-1,false,false
20:03:56 GMT-0500 Sat Mar 12 2022,true,42,17.596041,-83,-42.609319,50.625,0.09030329141801761,0,0,0,0,0,0,0,0,0,0,0,undefined,0,42,17.593619999999646,-83,-42.60802999999942,999,0.45,Drive,0,1,1,-0.12155279604474618,-1,false,false
20:03:57 GMT-0500 Sat Mar 12 2022,true,42,17.595847,-83,-42.60929,49.375,0.33935896402896215,0,0,0,0,0,0,0,0,0,0,0,undefined,0,42,17.5936099999999,-83,-42.60800999999992,999,7.233333333333333,Drive,0,1,1,-0.24040847360269502,-1,false,false
20:03:57 GMT-0500 Sat Mar 12 2022,true,42,17.595559,-83,-42.609219,47.4375,0.918181605380857,0,0,0,0,0,0,0,0,0,0,0,undefined,0,42,17.593590000000404,-83,-42.60794999999962,999,8.083333333333334,Drive,0,1,1,-0.4299134721311904,-1,false,false
20:03:58 GMT-0500 Sat Mar 12 2022,true,42,17.595149,-83,-42.609092,44.375,0.567878202467721,0,0,0,0,0,0,0,0,0,0,0,undefined,0,42,17.593579999999747,-83,-42.60790000000088,999,4.6,Drive,0,1,1,-0.5,-1,false,false
20:03:58 GMT-0500 Sat Mar 12 2022,true,42,17.594712,-83,-42.60881,40.6875,0.9083968329540839,0,0,0,0,0,0,0,0,0,0,0,undefined,0,42,17.593590000000404,-83,-42.607850000000326,999,6.783333333333333,Drive,0,1,1,-0.5,-1,false,false
20:03:59 GMT-0500 Sat Mar 12 2022,true,42,17.594269,-83,-42.608645,38.4375,2.4289740331985907,0,0,0,0,0,0,0,0,0,0,0,undefined,0,42,17.593729999999596,-83,-42.607669999999416,39.16,38.38333333333333,Drive,0,1,1,-0.5,-1,false,false
20:03:59 GMT-0500 Sat Mar 12 2022,true,42,17.593584,-83,-42.60862,34.5,2.7997676131627203,0,0,0,0,0,0,0,0,0,0,0,undefined,0,42,17.593850000000202,-83,-42.60750000000007,52.92,45.11666666666667,Drive,0,1,1,-0.5,-1,false,false
20:04:00 GMT-0500 Sat Mar 12 2022,true,42,17.593031,-83,-42.608553,31,3.1985972712787794,0,0,0,0,0,0,0,0,0,0,0,undefined,0,42,17.594019999999546,-83,-42.60728000000017,51.77,55,Drive,0,1,1,-0.5,-1,false,false
20:04:00 GMT-0500 Sat Mar 12 2022,true,42,17.592549,-83,-42.608512,27.25,3.607792380452296,0,0,0,0,0,0,0,0,0,0,0,undefined,0,42,17.594170000000304,-83,-42.607099999999264,40.94,42.75,Drive,0,1,1,-0.5,-1,false,false
20:04:01 GMT-0500 Sat Mar 12 2022,true,42,17.592303,-83,-42.608371,24.4375,2.914154892965085,0,0,0,0,0,0,0,0,0,0,0,undefined,0,42,17.594320000000153,-83,-42.60692000000017,41.17,42.483333333333334,Drive,0,1,1,-0.5,-1,false,false
20:04:01 GMT-0500 Sat Mar 12 2022,true,42,17.592247,-83,-42.608161,21.125,2.4718531505266257,0,0,0,0,0,0,0,0,0,0,0,undefined,0,42,17.59447,-83,-42.606770000000324,32.08,45.266666666666666,Drive,0,1,1,-0.5,-1,false,false
20:04:02 GMT-0500 Sat Mar 12 2022,true,42,17.592353,-83,-42.607941,18.25,1.8136358578643297,0,0,0,0,0,0,0,0,0,0,0,undefined,0,42,17.59461999999985,-83,-42.606620000000476,29.21,38.9,Drive,0,1,1,-0.5,-1,false,false
20:04:02 GMT-0500 Sat Mar 12 2022,true,42,17.592593,-83,-42.607641,14.75,1.536881816560327,0,0,0,0,0,0,0,0,0,0,0,undefined,0,42,17.594790000000103,-83,-42.60649999999987,27.13,45.63333333333333,Drive,0,1,1,-0.5,-1,false,false
20:04:03 GMT-0500 Sat Mar 12 2022,true,42,17.592858,-83,-42.60736,10.9375,1.6290633704352344,0,0,0,0,0,0,0,0,0,0,0,undefined,0,42,17.594930000000204,-83,-42.60642000000007,24.57,37.45,Drive,0,1,1,-0.5,-1,false,false
20:04:03 GMT-0500 Sat Mar 12 2022,true,42,17.593073,-83,-42.607115,8.3125,1.6676860386715224,0,0,0,0,0,0,0,0,0,0,0,undefined,0,42,17.595110000000204,-83,-42.606330000000526,13.57,40.8,Drive,0,1,1,-0.5,-1,false,false
20:04:04 GMT-0500 Sat Mar 12 2022,true,42,17.593331,-83,-42.606884,5.0625,1.5584518843039725,0,0,0,0,0,0,0,0,0,0,0,undefined,0,42,17.595299999999952,-83,-42.60623999999916,10.72,48.46666666666667,Drive,0,1,1,-0.5,-1,false,false
20:04:04 GMT-0500 Sat Mar 12 2022,true,42,17.593497,-83,-42.606716,2.5625,1.5427853919780807,0,0,0,0,0,0,0,0,0,0,0,undefined,0,42,17.5954899999997,-83,-42.60616999999911,12.72,45.36666666666667,Drive,0,1,1,-0.5,-1,false,false
20:04:05 GMT-0500 Sat Mar 12 2022,true,42,17.593823,-83,-42.606519,358.75,0.6795499112762812,0,0,0,0,0,0,0,0,0,0,0,undefined,0,42,17.595680000000357,-83,-42.60610000000088,12.92,44.666666666666664,Drive,0,1,1,-0.5,-1,false,false
20:04:05 GMT-0500 Sat Mar 12 2022,true,42,17.594157,-83,-42.606335,355.1875,0.7346761045109786,0,0,0,0,0,0,0,0,0,0,0,undefined,0,42,17.595860000000357,-83,-42.60606000000007,7.21,43.03333333333333,Drive,0,1,1,-0.5,-1,false,false
20:04:06 GMT-0500 Sat Mar 12 2022,true,42,17.594472,-83,-42.606171,352.375,0.9241528641484439,0,0,0,0,0,0,0,0,0,0,0,undefined,0,42,17.596010000000206,-83,-42.606040000000576,5.17,32.9,Drive,0,1,1,-0.5,-1,false,false
20:04:06 GMT-0500 Sat Mar 12 2022,true,42,17.594666,-83,-42.606008,348.75,1.1938876086889867,0,0,0,0,0,0,0,0,0,0,0,undefined,0,42,17.5962099999997,-83,-42.60601999999926,8.21,38.21666666666667,Drive,0,1,1,-0.2777747366323003,-1,false,false
20:04:07 GMT-0500 Sat Mar 12 2022,true,42,17.594934,-83,-42.605889,347.5625,1.0592130660666061,0,0,0,0,0,0,0,0,0,0,0,undefined,0,42,17.596410000000105,-83,-42.60601999999926,1.58,42.96666666666667,Drive,0,1,1,0.023725152763889364,-1,false,false
20:04:07 GMT-0500 Sat Mar 12 2022,true,42,17.595124,-83,-42.605804,347.6875,1.0795028189625027,0,0,0,0,0,0,0,0,0,0,0,undefined,0,42,17.5966099999996,-83,-42.60603000000083,356.3,50.46666666666667,Drive,0,1,1,0.19028543388564884,-1,false,false
20:04:08 GMT-0500 Sat Mar 12 2022,true,42,17.595342,-83,-42.605717,348.3125,1.1439369048240542,0,0,0,0,0,0,0,0,0,0,0,undefined,0,42,17.596800000000258,-83,-42.60605000000032,352.9,43.6,Drive,0,1,1,0.3345807054201954,-1,false,false
20:04:08 GMT-0500 Sat Mar 12 2022,true,42,17.595565,-83,-42.605664,349.9375,1.0503110054270064,0,0,0,0,0,0,0,0,0,0,0,undefined,0,42,17.596999999999753,-83,-42.60610000000088,350.89,38.65,Drive,0,1,1,0.3840672133296848,-1,false,false
20:04:09 GMT-0500 Sat Mar 12 2022,true,42,17.595901,-83,-42.605672,351.6875,0.5408506396444108,0,0,0,0,0,0,0,0,0,0,0,undefined,0,42,17.597179999999753,-83,-42.60615999999936,349.48,36.38333333333333,Drive,0,1,1,0.4017624838072256,-1,false,false
20:04:09 GMT-0500 Sat Mar 12 2022,true,42,17.596216,-83,-42.605711,353.5,0.2993201562142229,0,0,0,0,0,0,0,0,0,0,0,undefined,0,42,17.59734000000026,-83,-42.60620999999992,342.16,43.81666666666667,Drive,0,1,1,0.4025232441129357,-1,false,false
20:04:10 GMT-0500 Sat Mar 12 2022,true,42,17.596481,-83,-42.605768,355.1875,0.24117082453349667,0,0,0,0,0,0,0,0,0,0,0,undefined,0,42,17.597560000000158,-83,-42.606299999999464,337.37,56.733333333333334,Drive,0,1,1,0.3954693527006909,-1,false,false
20:04:10 GMT-0500 Sat Mar 12 2022,true,42,17.596823,-83,-42.605865,357.1875,0.3383856324897764,0,0,0,0,0,0,0,0,0,0,0,undefined,0,42,17.597780000000057,-83,-42.60639000000083,343.21,53.766666666666666,Drive,0,1,1,0.4489267573312322,-1,false,false
20:04:11 GMT-0500 Sat Mar 12 2022,true,42,17.597068,-83,-42.605983,0,0.4730390295008256,0,0,0,0,0,0,0,0,0,0,0,undefined,0,42,17.597969999999805,-83,-42.606480000000374,340.15,50.06666666666667,Drive,0,1,1,0.5,-1,false,false
20:04:11 GMT-0500 Sat Mar 12 2022,true,42,17.596224,-83,-42.606029,3.75,0.41060150974423426,0,0,0,0,0,0,0,0,0,0,0,undefined,0,42,17.598149999999805,-83,-42.60656000000017,341.21,40.28333333333333,Search Drive,0,1,1,0.3353330186371641,-1,false,false
20:04:12 GMT-0500 Sat Mar 12 2022,true,42,17.596658,-83,-42.60618,5.75,0.11037432911978118,0,0,0,0,0,0,0,0,0,0,0,undefined,0,42,17.598339999999553,-83,-42.60663000000022,342.68,48.266666666666666,Search Drive,0,1,1,0.5,-1,false,false
20:04:12 GMT-0500 Sat Mar 12 2022,true,42,17.596871,-83,-42.60623,8,0,0,0,0,0,0,0,0,0,0,0,0,undefined,0,42,17.598469999999907,-83,-42.60666999999921,346.45,40.65,Search Turn,0,1,0,-0.5,-1,false,false
20:04:13 GMT-0500 Sat Mar 12 2022,true,42,17.596993,-83,-42.606263,357.8125,0,0,0,0,0,0,0,0,0,0,0,0,undefined,0,42,17.598659999999654,-83,-42.60671000000002,357.35,41.78333333333333,Search Turn,0,1,0,-0.5,-1,false,false
20:04:13 GMT-0500 Sat Mar 12 2022,true,42,17.597097,-83,-42.60629,343.625,0,0,0,0,0,0,0,0,0,0,0,0,undefined,0,42,17.598839999999655,-83,-42.60676000000058,350.34,35.916666666666664,Search Turn,0,1,0,-0.5,-1,false,false
20:04:14 GMT-0500 Sat Mar 12 2022,true,42,17.597236,-83,-42.606324,328.3125,0,0,0,0,0,0,0,0,0,0,0,0,undefined,0,42,17.599019999999655,-83,-42.60678999999982,349.92,38.333333333333336,Search Turn,0,1,0,-0.5,-1,false,false
20:04:14 GMT-0500 Sat Mar 12 2022,true,42,17.597375,-83,-42.606349,312.75,0,0,0,0,0,0,0,0,0,0,0,0,undefined,0,42,17.599199999999655,-83,-42.606809999999314,353.22,36.7,Search Turn,0,1,0,-0.5,-1,false,false
20:04:15 GMT-0500 Sat Mar 12 2022,true,42,17.597511,-83,-42.606402,304.3125,0,0,0,0,0,0,0,0,0,0,0,0,undefined,0,42,17.599379999999655,-83,-42.60682000000088,356.4,38.166666666666664,Search Turn,0,1,0,-0.5,-1,false,false
20:04:15 GMT-0500 Sat Mar 12 2022,true,42,17.597662,-83,-42.606415,288.75,0,0,0,0,0,0,0,0,0,0,0,0,undefined,0,42,17.59954999999991,-83,-42.606809999999314,0.96,35.78333333333333,Search Turn,0,1,0,-0.5,-1,false,false
20:04:16 GMT-0500 Sat Mar 12 2022,true,42,17.597975,-83,-42.606519,273.6875,1.094133517327914,0,0,0,0,0,0,0,0,0,0,0,undefined,0,42,17.599589999999807,-83,-42.60678999999982,999,8.933333333333334,Search Drive,0,1,1,-0.4537150739394798,-1,false,false
20:04:16 GMT-0500 Sat Mar 12 2022,true,42,17.598393,-83,-42.606837,268.1875,0.4845472949356371,0,0,0,0,0,0,0,0,0,0,0,undefined,0,42,17.599640000000363,-83,-42.60678000000007,999,6.05,Search Drive,0,1,1,-0.5,-1,false,false
20:04:17 GMT-0500 Sat Mar 12 2022,true,42,17.598695,-83,-42.606955,265.0625,0.33648202219578244,0,0,0,0,0,0,0,0,0,0,0,undefined,0,42,17.59969000000001,-83,-42.60678999999982,999,8.2,Search Drive,0,1,1,-0.5,-1,false,false
20:04:17 GMT-0500 Sat Mar 12 2022,true,42,17.598906,-83,-42.606892,261.625,0.48981777000732313,0,0,0,0,0,0,0,0,0,0,0,undefined,0,42,17.59972000000016,-83,-42.606799999999566,999,8.666666666666666,Search Drive,0,1,1,-0.5,-1,false,false
20:04:18 GMT-0500 Sat Mar 12 2022,true,42,17.599148,-83,-42.606765,258.9375,0.416903808092576,0,0,0,0,0,0,0,0,0,0,0,undefined,0,42,17.599750000000313,-83,-42.60682000000088,294.93,15.116666666666667,Search Drive,0,1,1,-0.5,-1,false,false
20:04:18 GMT-0500 Sat Mar 12 2022,true,42,17.599346,-83,-42.60682,255.5,0.8638933494439611,0,0,0,0,0,0,0,0,0,0,0,undefined,0,42,17.599769999999808,-83,-42.60683000000063,999,3.8,Search Drive,0,1,1,-0.5,-1,false,false
20:04:19 GMT-0500 Sat Mar 12 2022,true,42,17.599493,-83,-42.607056,251.875,0.8861071205986967,0,0,0,0,0,0,0,0,0,0,0,undefined,0,42,17.599779999999555,-83,-42.60686999999962,999,9.216666666666667,Search Drive,0,1,1,-0.5,-1,false,false
20:04:19 GMT-0500 Sat Mar 12 2022,true,42,17.599636,-83,-42.607194,248.0625,0.6174946360202618,0,0,0,0,0,0,0,0,0,0,0,undefined,0,42,17.599769999999808,-83,-42.606980000000476,260.03,42.75,Search Drive,0,1,1,-0.5,-1,false,false
20:04:20 GMT-0500 Sat Mar 12 2022,true,42,17.599733,-83,-42.607283,244.875,0.5417294576983902,0,0,0,0,0,0,0,0,0,0,0,undefined,0,42,17.599739999999656,-83,-42.607239999999365,262.82,45.75,Search Drive,0,1,1,-0.5,-1,false,false
20:04:20 GMT-0500 Sat Mar 12 2022,true,42,17.599862,-83,-42.607284,241.8125,0.5925067700468019,0,0,0,0,0,0,0,0,0,0,0,undefined,0,42,17.59969000000001,-83,-42.607490000000325,259.98,37.25,Search Drive,0,1,1,-0.5,-1,false,false
20:04:21 GMT-0500 Sat Mar 12 2022,true,42,17.599926,-83,-42.607371,238.3125,0.4509601507611431,0,0,0,0,0,0,0,0,0,0,0,undefined,0,42,17.59961999999996,-83,-42.607710000000225,253,38.43333333333333,Search Drive,0,1,1,-0.5,-1,false,false
20:04:21 GMT-0500 Sat Mar 12 2022,true,42,17.59996,-83,-42.607473,234.5625,0.5663754380995996,0,0,0,0,0,0,0,0,0,0,0,undefined,0,42,17.59954999999991,-83,-42.60793999999987,242.5,36.36666666666667,Search Drive,0,1,1,-0.5,-1,false,false
20:04:22 GMT-0500 Sat Mar 12 2022,true,42,17.600003,-83,-42.607516,230.8125,1.5268472705798624,0,0,0,0,0,0,0,0,0,0,0,undefined,0,42,17.599449999999706,-83,-42.60816999999952,239.07,39.516666666666666,Search Drive,0,1,1,-0.5,-1,false,false
20:04:22 GMT-0500 Sat Mar 12 2022,true,42,17.60008,-83,-42.607458,228.1875,1.2234652738746652,0,0,0,0,0,0,0,0,0,0,0,undefined,0,42,17.599369999999908,-83,-42.60837999999967,240.25,51.766666666666666,Search Drive,0,1,1,-0.5,-1,false,false
20:04:23 GMT-0500 Sat Mar 12 2022,true,42,17.600073,-83,-42.607536,225.4375,0.8680296555248882,0,0,0,0,0,0,0,0,0,0,0,undefined,0,42,17.59925999999996,-83,-42.60860999999932,243.31,46.56666666666667,Search Drive,0,1,1,-0.5,-1,false,false
20:04:23 GMT-0500 Sat Mar 12 2022,true,42,17.600026,-83,-42.607672,221.5625,0.9273871324416421,0,0,0,0,0,0,0,0,0,0,0,undefined,0,42,17.59914000000026,-83,-42.60884000000078,236.58,56.766666666666666,Search Drive,0,1,1,-0.5,-1,false,false
20:04:24 GMT-0500 Sat Mar 12 2022,true,42,17.599926,-83,-42.607874,217.9375,0.2889125760406616,0,0,0,0,0,0,0,0,0,0,0,undefined,0,42,17.59903000000031,-83,-42.609049999999115,235.39,46.333333333333336,Search Drive,0,1,1,-0.5,-1,false,false
20:04:24 GMT-0500 Sat Mar 12 2022,true,42,17.599678,-83,-42.608238,213.625,0.1255208719694825,0,0,0,0,0,0,0,0,0,0,0,undefined,0,42,17.59889000000021,-83,-42.60927000000083,225.91,49.95,Search Drive,0,1,1,-0.5,-1,false,false
20:04:25 GMT-0500 Sat Mar 12 2022,true,42,17.599469,-83,-42.608571,210.5,0.38829549043120626,0,0,0,0,0,0,0,0,0,0,0,undefined,0,42,17.598790000000008,-83,-42.60943000000043,231.13,38.71666666666667,Search Drive,0,1,1,-0.5,-1,false,false
20:04:25 GMT-0500 Sat Mar 12 2022,true,42,17.599153,-83,-42.608968,207.4375,0.6716795488935093,0,0,0,0,0,0,0,0,0,0,0,undefined,0,42,17.597569999999905,-83,-42.61053999999967,202.92,39,Search Drive,0,1,1,-0.5,-1,false,false
20:04:26 GMT-0500 Sat Mar 12 2022,true,42,17.597532,-83,-42.610696,204.625,0,0,0,0,0,0,0,0,0,0,0,0,undefined,0,42,17.59737000000041,-83,-42.61061999999947,193.12,41.36666666666667,Search Turn,0,1,0,0.5,-1,false,false
20:04:26 GMT-0500 Sat Mar 12 2022,true,42,17.596784,-83,-42.61116,213.3125,0,0,0,0,0,0,0,0,0,0,0,0,undefined,0,42,17.597270000000208,-83,-42.61065000000053,142.05,10.883333333333333,Search Turn,0,1,0,0.5,-1,false,false
20:04:27 GMT-0500 Sat Mar 12 2022,true,42,17.596829,-83,-42.611113,229.5625,0,0,0,0,0,0,0,0,0,0,0,0,undefined,0,42,17.597270000000208,-83,-42.61061999999947,999,2.25,Search Turn,0,1,0,0.5,-1,false,false
20:04:27 GMT-0500 Sat Mar 12 2022,true,42,17.596875,-83,-42.61105,246.125,0,0,0,0,0,0,0,0,0,0,0,0,undefined,0,42,17.597289999999703,-83,-42.610570000000735,999,6.333333333333333,Search Turn,0,1,0,0.5,-1,false,false
20:04:28 GMT-0500 Sat Mar 12 2022,true,42,17.596909,-83,-42.610994,258.8125,0,0,0,0,0,0,0,0,0,0,0,0,undefined,0,42,17.597289999999703,-83,-42.610500000000684,89.69,18.883333333333333,Search Turn,0,1,0,0.5,-1,false,false
20:04:28 GMT-0500 Sat Mar 12 2022,true,42,17.596947,-83,-42.610915,274.9375,0,0,0,0,0,0,0,0,0,0,0,0,undefined,0,42,17.59725999999955,-83,-42.61047999999937,999,11.65,Search Turn,0,1,0,0.5,-1,false,false
