Timestamp,Auton Enabled,Odom Degrees Lat,Odom Minutes Lat,Odom Degrees Lon,Odom Minutes Lon,Odom bearing,Odom speed,Accel X,Accel Y,Accel Z,Gyro X,Gyro Y,Gyro Z,Mag X,Mag Y,Mag Z,Roll,Pitch,Yaw,IMU Bearing,GPS Degrees Lat,GPS Minutes Lat,GPS Degrees Lon,GPS Minutes Lon,GPS Bearing,GPS Speed,Nav State,Waypoints Completed,Total Waypoints,Forward/Back,Left/Right,Dampen,Kill,Restart
19:42:09 GMT-0500 Sat Mar 12 2022,false,42,17.597502,-83,-42.607196,84.8125,0,0,0,0,0,0,0,0,0,0,0,0,undefined,0,42,17.596230000000105,-83,-42.61153999999988,999,0.95,Off,1,1,0,0,-1,false,false
19:42:10 GMT-0500 Sat Mar 12 2022,false,42,17.597489,-83,-42.607248,84.8125,0,0,0,0,0,0,0,0,0,0,0,0,undefined,0,42,17.596230000000105,-83,-42.61153999999988,999,0.8,Off,1,1,0,0,-1,false,false
19:42:10 GMT-0500 Sat Mar 12 2022,false,42,17.597473,-83,-42.607313,84.8125,0,0,0,0,0,0,0,0,0,0,0,0,undefined,0,42,17.596220000000358,-83,-42.61153999999988,999,0.8166666666666667,Off,1,1,0,0,-1,false,false
19:42:11 GMT-0500 Sat Mar 12 2022,false,42,17.597457,-83,-42.607377,84.8125,0,0,0,0,0,0,0,0,0,0,0,0,undefined,0,42,17.596220000000358,-83,-42.61153999999988,999,0.9166666666666666,Off,1,1,0,0,-1,false,false
19:42:11 GMT-0500 Sat Mar 12 2022,false,42,17.597441,-83,-42.60744,84.8125,0,0,0,0,0,0,0,0,0,0,0,0,undefined,0,42,17.596220000000358,-83,-42.611549999999625,999,0.5,Off,1,1,0,0,-1,false,false
19:42:12 GMT-0500 Sat Mar 12 2022,false,42,17.597429,-83,-42.60749,84.8125,0,0,0,0,0,0,0,0,0,0,0,0,undefined,0,42,17.596220000000358,-83,-42.611549999999625,999,3.8666666666666667,Off,1,1,0,0,-1,false,false
19:42:12 GMT-0500 Sat Mar 12 2022,false,42,17.597413,-83,-42.607551,84.8125,0,0,0,0,0,0,0,0,0,0,0,0,undefined,0,42,17.596220000000358,-83,-42.611549999999625,999,1.95,Off,1,1,0,0,-1,false,false
19:42:13 GMT-0500 Sat Mar 12 2022,false,42,17.597398,-83,-42.607612,84.8125,0,0,0,0,0,0,0,0,0,0,0,0,undefined,0,42,17.596220000000358,-83,-42.611549999999625,999,2.7666666666666666,Off,1,1,0,0,-1,false,false
19:42:13 GMT-0500 Sat Mar 12 2022,false,42,17.597383,-83,-42.607672,84.8125,0,0,0,0,0,0,0,0,0,0,0,0,undefined,0,42,17.5962099999997,-83,-42.611549999999625,999,2.4,Off,1,1,0,0,-1,false,false
19:42:14 GMT-0500 Sat Mar 12 2022,false,42,17.597368,-83,-42.607732,84.8125,0,0,0,0,0,0,0,0,0,0,0,0,undefined,0,42,17.596199999999953,-83,-42.611549999999625,999,2.7,Off,1,1,0,0,-1,false,false
19:42:14 GMT-0500 Sat Mar 12 2022,false,42,17.597353,-83,-42.60779,84.8125,0,0,0,0,0,0,0,0,0,0,0,0,undefined,0,42,17.596199999999953,-83,-42.611549999999625,999,1.7333333333333334,Off,1,1,0,0,-1,false,false
19:42:15 GMT-0500 Sat Mar 12 2022,false,42,17.597341,-83,-42.607837,84.8125,0,0,0,0,0,0,0,0,0,0,0,0,undefined,0,42,17.596190000000206,-83,-42.611549999999625,999,1.4,Off,1,1,0,0,-1,false,false
19:42:15 GMT-0500 Sat Mar 12 2022,false,42,17.59733,-83,-42.607883,84.8125,0,0,0,0,0,0,0,0,0,0,0,0,undefined,0,42,17.596190000000206,-83,-42.611549999999625,999,2.1666666666666665,Off,1,1,0,0,-1,false,false
19:42:16 GMT-0500 Sat Mar 12 2022,false,42,17.597312,-83,-42.607951,84.8125,0,0,0,0,0,0,0,0,0,0,0,0,undefined,0,42,17.59617999999955,-83,-42.61153999999988,999,1.6,Off,1,1,0,0,-1,false,false
19:42:16 GMT-0500 Sat Mar 12 2022,false,42,17.597298,-83,-42.608006,84.8125,0,0,0,0,0,0,0,0,0,0,0,0,undefined,0,42,17.596169999999802,-83,-42.61153999999988,999,0.9833333333333333,Off,1,1,0,0,-1,false,false
19:42:17 GMT-0500 Sat Mar 12 2022,false,42,17.597284,-83,-42.608061,84.8125,0,0,0,0,0,0,0,0,0,0,0,0,undefined,0,42,17.596169999999802,-83,-42.61153000000013,999,2.5833333333333335,Off,1,1,0,0,-1,false,false
19:42:17 GMT-0500 Sat Mar 12 2022,false,42,17.597272,-83,-42.608104,84.8125,0,0,0,0,0,0,0,0,0,0,0,0,undefined,0,42,17.596160000000054,-83,-42.61153000000013,999,0.9166666666666666,Off,1,1,0,0,-1,false,false
19:42:18 GMT-0500 Sat Mar 12 2022,false,42,17.597258,-83,-42.608158,84.8125,0,0,0,0,0,0,0,0,0,0,0,0,undefined,0,42,17.596150000000307,-83,-42.61153000000013,999,1.2166666666666666,Off,1,1,0,0,-1,false,false
19:42:18 GMT-0500 Sat Mar 12 2022,false,42,17.597244,-83,-42.608211,84.8125,0,0,0,0,0,0,0,0,0,0,0,0,undefined,0,42,17.596150000000307,-83,-42.61153000000013,999,0.5,Off,1,1,0,0,-1,false,false
19:42:19 GMT-0500 Sat Mar 12 2022,false,42,17.59723,-83,-42.608263,84.8125,0,0,0,0,0,0,0,0,0,0,0,0,undefined,0,42,17.59613999999965,-83,-42.61153000000013,999,0.5333333333333333,Off,1,1,0,0,-1,false,false
19:42:19 GMT-0500 Sat Mar 12 2022,false,42,17.597216,-83,-42.608315,84.8125,0,0,0,0,0,0,0,0,0,0,0,0,undefined,0,42,17.59613999999965,-83,-42.61152000000038,999,2.3333333333333335,Off,1,1,0,0,-1,false,false
19:42:20 GMT-0500 Sat Mar 12 2022,false,42,17.597206,-83,-42.608355,84.8125,0,0,0,0,0,0,0,0,0,0,0,0,undefined,0,42,17.59613999999965,-83,-42.61152000000038,999,0.7166666666666667,Off,1,1,0,0,-1,false,false
19:42:20 GMT-0500 Sat Mar 12 2022,false,42,17.597192,-83,-42.608406,84.8125,0,0,0,0,0,0,0,0,0,0,0,0,undefined,0,42,17.596129999999903,-83,-42.61152000000038,999,1.4833333333333334,Off,1,1,0,0,-1,false,false
19:42:21 GMT-0500 Sat Mar 12 2022,false,42,17.597179,-83,-42.608455,84.8125,0,0,0,0,0,0,0,0,0,0,0,0,undefined,0,42,17.596129999999903,-83,-42.611510000000635,999,1.8166666666666667,Off,1,1,0,0,-1,false,false
19:42:21 GMT-0500 Sat Mar 12 2022,false,42,17.597165,-83,-42.608504,84.8125,0,0,0,0,0,0,0,0,0,0,0,0,undefined,0,42,17.596120000000155,-83,-42.611510000000635,999,0.85,Off,1,1,0,0,-1,false,false
19:42:22 GMT-0500 Sat Mar 12 2022,false,42,17.597152,-83,-42.608553,84.8125,0,0,0,0,0,0,0,0,0,0,0,0,undefined,0,42,17.596120000000155,-83,-42.611510000000635,999,1.9666666666666666,Off,1,1,0,0,-1,false,false
19:42:22 GMT-0500 Sat Mar 12 2022,false,42,17.597142,-83,-42.608591,84.8125,0,0,0,0,0,0,0,0,0,0,0,0,undefined,0,42,17.596110000000408,-83,-42.611510000000635,999,0.9,Off,1,1,0,0,-1,false,false
19:42:23 GMT-0500 Sat Mar 12 2022,false,42,17.597128,-83,-42.608638,84.8125,0,0,0,0,0,0,0,0,0,0,0,0,undefined,0,42,17.596110000000408,-83,-42.611510000000635,999,1.3666666666666667,Off,1,1,0,0,-1,false,false
19:42:23 GMT-0500 Sat Mar 12 2022,false,42,17.597116,-83,-42.608685,84.8125,0,0,0,0,0,0,0,0,0,0,0,0,undefined,0,42,17.596110000000408,-83,-42.611510000000635,999,1.0666666666666667,Off,1,1,0,0,-1,false,false
19:42:24 GMT-0500 Sat Mar 12 2022,false,42,17.597179,-83,-42.607594,84.8125,0,0,0,0,0,0,0,0,0,0,0,0,undefined,0,42,17.596110000000408,-83,-42.611510000000635,999,2.433333333333333,Off,1,1,0,0,-1,false,false
19:42:24 GMT-0500 Sat Mar 12 2022,false,42,17.597182,-83,-42.607417,84.8125,0,0,0,0,0,0,0,0,0,0,0,0,undefined,0,42,17.59609999999975,-83,-42.611510000000635,999,0.5666666666666667,Off,1,1,0,0,-1,false,false
19:42:25 GMT-0500 Sat Mar 12 2022,false,42,17.597171,-83,-42.607466,84.8125,0,0,0,0,0,0,0,0,0,0,0,0,undefined,0,42,17.59609999999975,-83,-42.611510000000635,999,0.25,Off,1,1,0,0,-1,false,false
19:42:25 GMT-0500 Sat Mar 12 2022,false,42,17.597157,-83,-42.607527,84.8125,0,0,0,0,0,0,0,0,0,0,0,0,undefined,0,42,17.596090000000004,-83,-42.611510000000635,999,0.8666666666666667,Off,1,1,0,0,-1,false,false
19:42:26 GMT-0500 Sat Mar 12 2022,false,42,17.597144,-83,-42.607586,84.8125,0,0,0,0,0,0,0,0,0,0,0,0,undefined,0,42,17.596090000000004,-83,-42.611510000000635,999,1.2833333333333334,Off,1,1,0,0,-1,false,false
19:42:26 GMT-0500 Sat Mar 12 2022,false,42,17.597131,-83,-42.607645,84.8125,0,0,0,0,0,0,0,0,0,0,0,0,undefined,0,42,17.596090000000004,-83,-42.611510000000635,999,0.2,Off,1,1,0,0,-1,false,false
19:42:27 GMT-0500 Sat Mar 12 2022,false,42,17.59712,-83,-42.607692,84.8125,0,0,0,0,0,0,0,0,0,0,0,0,undefined,0,42,17.596080000000256,-83,-42.61152000000038,999,1.45,Off,1,1,0,0,-1,false,false
19:42:27 GMT-0500 Sat Mar 12 2022,false,42,17.597107,-83,-42.60775,84.8125,0,0,0,0,0,0,0,0,0,0,0,0,undefined,0,42,17.596080000000256,-83,-42.611510000000635,999,1,Off,1,1,0,0,-1,false,false
19:42:28 GMT-0500 Sat Mar 12 2022,false,42,17.597094,-83,-42.607807,84.8125,0,0,0,0,0,0,0,0,0,0,0,0,undefined,0,42,17.596080000000256,-83,-42.61152000000038,999,0.8666666666666667,Off,1,1,0,0,-1,false,false
19:42:28 GMT-0500 Sat Mar 12 2022,false,42,17.597081,-83,-42.607863,84.8125,0,0,0,0,0,0,0,0,0,0,0,0,undefined,0,42,17.5960699999996,-83,-42.61152000000038,999,0.36666666666666664,Off,1,1,0,0,-1,false,false
19:42:29 GMT-0500 Sat Mar 12 2022,false,42,17.597068,-83,-42.607919,84.8125,0,0,0,0,0,0,0,0,0,0,0,0,undefined,0,42,17.5960699999996,-83,-42.61152000000038,999,1.0166666666666666,Off,1,1,0,0,-1,false,false
19:42:29 GMT-0500 Sat Mar 12 2022,true,42,17.597058,-83,-42.607963,84.8125,0,0,0,0,0,0,0,0,0,0,0,0,undefined,0,42,17.596059999999852,-83,-42.61152000000038,999,0.9,Turn,0,1,0,-0.5,-1,false,false
19:42:30 GMT-0500 Sat Mar 12 2022,true,42,17.597051,-83,-42.607997,82.125,0,0,0,0,0,0,0,0,0,0,0,0,undefined,0,42,17.596059999999852,-83,-42.61152000000038,999,0.7666666666666667,Turn,0,1,0,-0.5,-1,false,false
19:42:30 GMT-0500 Sat Mar 12 2022,true,42,17.596953,-83,-42.608409,70.5625,0.9763369797587399,0,0,0,0,0,0,0,0,0,0,0,undefined,0,42,17.596050000000105,-83,-42.61152000000038,999,2.033333333333333,Drive,0,1,1,-0.5,-1,false,false
19:42:31 GMT-0500 Sat Mar 12 2022,true,42,17.596849,-83,-42.608833,66.1875,0.5933646685271406,0,0,0,0,0,0,0,0,0,0,0,undefined,0,42,17.596050000000105,-83,-42.611479999999574,81.86,11.366666666666667,Drive,0,1,1,-0.5,-1,false,false
19:42:31 GMT-0500 Sat Mar 12 2022,true,42,17.596808,-83,-42.608998,64.75,0.9138827206685435,0,0,0,0,0,0,0,0,0,0,0,undefined,0,42,17.596059999999852,-83,-42.61141999999927,62.33,30.966666666666665,Drive,0,1,1,-0.47939362532232177,-1,false,false
19:42:32 GMT-0500 Sat Mar 12 2022,true,42,17.596658,-83,-42.609631,61.6875,0.643368561651446,0,0,0,0,0,0,0,0,0,0,0,undefined,0,42,17.596160000000054,-83,-42.611070000000836,66.18,33.233333333333334,Drive,0,1,1,-0.14590776304915112,-1,false,false
19:42:32 GMT-0500 Sat Mar 12 2022,true,42,17.596545,-83,-42.610031,61.125,1.257002986191519,0,0,0,0,0,0,0,0,0,0,0,undefined,0,42,17.596260000000257,-83,-42.610819999999876,56.4,65.85,Drive,0,1,1,0.0007871711868185836,-1,false,false
19:42:33 GMT-0500 Sat Mar 12 2022,true,42,17.596395,-83,-42.610505,60.9375,1.904036284916032,0,0,0,0,0,0,0,0,0,0,0,undefined,0,42,17.596309999999903,-83,-42.61068999999952,64.85,43.333333333333336,Drive,0,1,1,0.1293593242305718,-1,false,false
19:42:33 GMT-0500 Sat Mar 12 2022,true,42,17.596192,-83,-42.611136,61.3125,1.9142923104681828,0,0,0,0,0,0,0,0,0,0,0,undefined,0,42,17.59645999999975,-83,-42.61038000000008,57.46,35,Drive,0,1,1,0.2734168780424306,-1,false,false
19:42:34 GMT-0500 Sat Mar 12 2022,true,42,17.596075,-83,-42.611517,62.5625,2.158207947524803,0,0,0,0,0,0,0,0,0,0,0,undefined,0,42,17.596599999999853,-83,-42.61014000000068,53.94,51.2,Drive,0,1,1,0.3329288262259772,-1,false,false
19:42:34 GMT-0500 Sat Mar 12 2022,true,42,17.596035,-83,-42.611694,63.9375,2.0494817573206863,0,0,0,0,0,0,0,0,0,0,0,undefined,0,42,17.596709999999803,-83,-42.60990999999922,53.13,43.38333333333333,Drive,0,1,1,0.3607195448626072,-1,false,false
19:42:35 GMT-0500 Sat Mar 12 2022,true,42,17.596026,-83,-42.611783,64.8125,2.570618981711634,0,0,0,0,0,0,0,0,0,0,0,undefined,0,42,17.596800000000258,-83,-42.609739999999874,53.65,41.733333333333334,Drive,0,1,1,0.3803772673998935,-1,false,false
19:42:35 GMT-0500 Sat Mar 12 2022,true,42,17.596014,-83,-42.611913,66.6875,2.105127800034905,0,0,0,0,0,0,0,0,0,0,0,undefined,0,42,17.596889999999803,-83,-42.60958000000028,44.81,25.816666666666666,Drive,0,1,1,0.3360172186295012,-1,false,false
19:42:36 GMT-0500 Sat Mar 12 2022,true,42,17.5961,-83,-42.611768,68.0625,1.4933654870202422,0,0,0,0,0,0,0,0,0,0,0,undefined,0,42,17.597029999999904,-83,-42.609300000000076,54.82,44.06666666666667,Drive,0,1,1,0.3020008140394351,-1,false,false
19:42:36 GMT-0500 Sat Mar 12 2022,true,42,17.596228,-83,-42.611522,69.0625,1.710309564006537,0,0,0,0,0,0,0,0,0,0,0,undefined,0,42,17.597139999999854,-83,-42.609080000000176,58.83,42.483333333333334,Drive,0,1,1,0.28101021885899635,-1,false,false
19:42:37 GMT-0500 Sat Mar 12 2022,true,42,17.596365,-83,-42.611268,70.625,1.4496321345206578,0,0,0,0,0,0,0,0,0,0,0,undefined,0,42,17.59723000000031,-83,-42.60886000000028,59.27,40.95,Drive,0,1,1,0.23269376651528065,-1,false,false
19:42:37 GMT-0500 Sat Mar 12 2022,true,42,17.59647,-83,-42.611086,70.75,1.5587834402725989,0,0,0,0,0,0,0,0,0,0,0,undefined,0,42,17.597319999999854,-83,-42.60866999999962,52.48,56.166666666666664,Drive,0,1,1,0.25894065048784154,-1,false,false
19:42:38 GMT-0500 Sat Mar 12 2022,true,42,17.596605,-83,-42.610836,71.5625,1.3521561957315518,0,0,0,0,0,0,0,0,0,0,0,undefined,0,42,17.597389999999905,-83,-42.60842000000048,66.6,50.53333333333333,Drive,0,1,1,0.269931051379883,-1,false,false
19:42:38 GMT-0500 Sat Mar 12 2022,true,42,17.596773,-83,-42.610439,72.625,0.8561498779482499,0,0,0,0,0,0,0,0,0,0,0,undefined,0,42,17.597469999999703,-83,-42.60819000000083,67.44,39.71666666666667,Drive,0,1,1,0.2853109268468423,-1,false,false
19:42:39 GMT-0500 Sat Mar 12 2022,true,42,17.596952,-83,-42.609977,73.6875,0.4224846303715313,0,0,0,0,0,0,0,0,0,0,0,undefined,0,42,17.59755000000041,-83,-42.60793999999987,71.82,40.833333333333336,Drive,0,1,1,0.31699800901366054,-1,false,false
19:42:39 GMT-0500 Sat Mar 12 2022,true,42,17.597162,-83,-42.60934,75.75,0.30654947824753326,0,0,0,0,0,0,0,0,0,0,0,undefined,0,42,17.597639999999956,-83,-42.60769000000073,62.86,52.31666666666667,Drive,0,1,1,0.3291183508861959,-1,false,false
19:42:40 GMT-0500 Sat Mar 12 2022,true,42,17.597325,-83,-42.608927,77.875,0.483635547446553,0,0,0,0,0,0,0,0,0,0,0,undefined,0,42,17.597719999999754,-83,-42.60743000000002,68.77,50.1,Drive,0,1,1,0.3825966557381723,-1,false,false
19:42:40 GMT-0500 Sat Mar 12 2022,true,42,17.597445,-83,-42.608611,79.625,0.4883768968721019,0,0,0,0,0,0,0,0,0,0,0,undefined,0,42,17.597799999999552,-83,-42.60719000000063,68.64,46.766666666666666,Drive,0,1,1,0.49283959719284826,-1,false,false
19:42:41 GMT-0500 Sat Mar 12 2022,true,42,17.597616,-83,-42.60802,82.5625,0.8318186946231438,0,0,0,0,0,0,0,0,0,0,0,undefined,0,42,17.597859999999855,-83,-42.60700999999972,60.29,36.93333333333333,Drive,0,1,1,0.5,-1,false,false
19:42:41 GMT-0500 Sat Mar 12 2022,true,42,17.597764,-83,-42.607563,86.375,0.3176768858433595,0,0,0,0,0,0,0,0,0,0,0,undefined,0,42,17.59792000000016,-83,-42.60676000000058,72.39,43.166666666666664,Drive,0,1,1,0.5,-1,false,false
19:42:42 GMT-0500 Sat Mar 12 2022,true,42,17.597888,-83,-42.607266,90.5625,0.3613805632005737,0,0,0,0,0,0,0,0,0,0,0,undefined,0,42,17.597979999999552,-83,-42.60652999999911,68.4,42.36666666666667,Search Turn,0,1,1,0.5,-1,false,false
19:42:42 GMT-0500 Sat Mar 12 2022,true,42,17.598322,-83,-42.606931,87.1875,0,0,0,0,0,0,0,0,0,0,0,0,undefined,0,42,17.598009999999704,-83,-42.60630999999921,81.2,35.63333333333333,Search Turn,0,1,0,-0.5,-1,false,false
19:42:43 GMT-0500 Sat Mar 12 2022,true,42,17.59829,-83,-42.606941,75.25,0,0,0,0,0,0,0,0,0,0,0,0,undefined,0,42,17.598049999999603,-83,-42.60610000000088,76.59,38.95,Search Turn,0,1,0,-0.5,-1,false,false
19:42:43 GMT-0500 Sat Mar 12 2022,true,42,17.59827,-83,-42.606878,62.625,0,0,0,0,0,0,0,0,0,0,0,0,undefined,0,42,17.598070000000007,-83,-42.60586999999941,84.45,40.2,Search Turn,0,1,0,-0.5,-1,false,false
19:42:44 GMT-0500 Sat Mar 12 2022,true,42,17.59825,-83,-42.606781,47.5,0,0,0,0,0,0,0,0,0,0,0,0,undefined,0,42,17.59806000000026,-83,-42.60574000000088,97.69,17.1,Search Turn,0,1,0,-0.5,-1,false,false
19:42:44 GMT-0500 Sat Mar 12 2022,true,42,17.598228,-83,-42.606684,31.375,0,0,0,0,0,0,0,0,0,0,0,0,undefined,0,42,17.598049999999603,-83,-42.60569000000032,96.56,13.816666666666666,Search Turn,0,1,0,-0.5,-1,false,false
19:42:45 GMT-0500 Sat Mar 12 2022,true,42,17.598148,-83,-42.606466,16.875,0.5656227581664102,0,0,0,0,0,0,0,0,0,0,0,undefined,0,42,17.598039999999855,-83,-42.60563000000002,120.71,10,Search Drive,0,1,1,-0.5,-1,false,false
19:42:45 GMT-0500 Sat Mar 12 2022,true,42,17.597974,-83,-42.606303,13.75,0.6315479088019692,0,0,0,0,0,0,0,0,0,0,0,undefined,0,42,17.598049999999603,-83,-42.60557999999946,999,5.933333333333334,Search Drive,0,1,1,-0.5,-1,false,false
19:42:46 GMT-0500 Sat Mar 12 2022,true,42,17.597899,-83,-42.606203,11.3125,0.3036906508527519,0,0,0,0,0,0,0,0,0,0,0,undefined,0,42,17.598079999999754,-83,-42.605540000000474,999,9.8,Search Drive,0,1,1,-0.5,-1,false,false
19:42:46 GMT-0500 Sat Mar 12 2022,true,42,17.597847,-83,-42.606091,7.6875,0.9812706492395327,0,0,0,0,0,0,0,0,0,0,0,undefined,0,42,17.598109999999906,-83,-42.60551999999916,999,8.483333333333333,Search Drive,0,1,1,-0.5,-1,false,false
19:42:47 GMT-0500 Sat Mar 12 2022,true,42,17.597609,-83,-42.606029,4.5625,1.5210844289265029,0,0,0,0,0,0,0,0,0,0,0,undefined,0,42,17.59828000000016,-83,-42.60548999999992,10.08,42.266666666666666,Search Drive,0,1,1,-0.5,-1,false,false
19:42:47 GMT-0500 Sat Mar 12 2022,true,42,17.597532,-83,-42.605954,1,0.9484491757908706,0,0,0,0,0,0,0,0,0,0,0,undefined,0,42,17.598430000000008,-83,-42.60548000000017,0.33,45.083333333333336,Search Drive,0,1,1,-0.5,-1,false,false
19:42:48 GMT-0500 Sat Mar 12 2022,true,42,17.59757,-83,-42.60587,357.6875,0.503174865226719,0,0,0,0,0,0,0,0,0,0,0,undefined,0,42,17.59867000000031,-83,-42.60548000000017,357.7,42.25,Search Drive,0,1,1,-0.5,-1,false,false
19:42:48 GMT-0500 Sat Mar 12 2022,true,42,17.597783,-83,-42.605789,353.9375,0.3694689783766764,0,0,0,0,0,0,0,0,0,0,0,undefined,0,42,17.598829999999907,-83,-42.605499999999665,340.74,33.06666666666667,Search Drive,0,1,1,-0.5,-1,false,false
19:42:49 GMT-0500 Sat Mar 12 2022,true,42,17.597945,-83,-42.605722,352.8125,0.7646053949060291,0,0,0,0,0,0,0,0,0,0,0,undefined,0,42,17.59903000000031,-83,-42.60551999999916,347.8,51.63333333333333,Search Drive,0,1,1,-0.5,-1,false,false
19:42:49 GMT-0500 Sat Mar 12 2022,true,42,17.598115,-83,-42.605644,351.375,0.24590578399456145,0,0,0,0,0,0,0,0,0,0,0,undefined,0,42,17.599199999999655,-83,-42.60555999999997,353.43,30.183333333333334,Search Drive,0,1,1,-0.5,-1,false,false
19:42:50 GMT-0500 Sat Mar 12 2022,true,42,17.598409,-83,-42.605611,348.5625,0.07304206397476896,0,0,0,0,0,0,0,0,0,0,0,undefined,0,42,17.599390000000312,-83,-42.60563000000002,350.12,33.3,Search Drive,0,1,1,-0.5,-1,false,false
19:42:50 GMT-0500 Sat Mar 12 2022,true,42,17.598848,-83,-42.605648,342.3125,0.793665712966921,0,0,0,0,0,0,0,0,0,0,0,undefined,0,42,17.599519999999757,-83,-42.605719999999565,341.9,22.85,Search Drive,0,1,1,-0.5,-1,false,false
19:42:51 GMT-0500 Sat Mar 12 2022,true,42,17.599933,-83,-42.605761,336.8125,0,0,0,0,0,0,0,0,0,0,0,0,undefined,0,42,17.599629999999706,-83,-42.60580999999911,335.24,39.36666666666667,Search Turn,0,1,0,-0.5,-1,false,false
19:42:51 GMT-0500 Sat Mar 12 2022,true,42,17.599877,-83,-42.605741,328.5,0,0,0,0,0,0,0,0,0,0,0,0,undefined,0,42,17.59983000000011,-83,-42.605939999999464,330.97,45.983333333333334,Search Turn,0,1,0,-0.5,-1,false,false
19:42:52 GMT-0500 Sat Mar 12 2022,true,42,17.599893,-83,-42.605776,314.8125,0,0,0,0,0,0,0,0,0,0,0,0,undefined,0,42,17.600040000000263,-83,-42.60610000000088,332.23,50.516666666666666,Search Turn,0,1,0,-0.5,-1,false,false
19:42:52 GMT-0500 Sat Mar 12 2022,true,42,17.599925,-83,-42.605815,298.625,0,0,0,0,0,0,0,0,0,0,0,0,undefined,0,42,17.600330000000213,-83,-42.606229999999414,332.96,62.21666666666667,Search Turn,0,1,0,-0.5,-1,false,false
19:42:53 GMT-0500 Sat Mar 12 2022,true,42,17.59996,-83,-42.605843,284.3125,0,0,0,0,0,0,0,0,0,0,0,0,undefined,0,42,17.60030999999981,-83,-42.606190000000424,146.81,12.733333333333333,Search Turn,0,1,0,-0.5,-1,false,false
19:42:53 GMT-0500 Sat Mar 12 2022,true,42,17.599989,-83,-42.605866,277.625,0,0,0,0,0,0,0,0,0,0,0,0,undefined,0,42,17.60033999999996,-83,-42.60620999999992,999,7.65,Search Turn,0,1,0,-0.5,-1,false,false
19:42:54 GMT-0500 Sat Mar 12 2022,true,42,17.600024,-83,-42.60594,270.75,0,0,0,0,0,0,0,0,0,0,0,0,undefined,0,42,17.600349999999708,-83,-42.606229999999414,999,3.7666666666666666,Search Turn,0,1,0,-0.5,-1,false,false
19:42:54 GMT-0500 Sat Mar 12 2022,true,42,17.600057,-83,-42.605938,259.375,0,0,0,0,0,0,0,0,0,0,0,0,undefined,0,42,17.60037999999986,-83,-42.60625000000073,999,3.8666666666666667,Search Turn,0,1,0,-0.5,-1,false,false
19:42:55 GMT-0500 Sat Mar 12 2022,true,42,17.600096,-83,-42.605936,247.625,0,0,0,0,0,0,0,0,0,0,0,0,undefined,0,42,17.600400000000263,-83,-42.606299999999464,295.02,16.766666666666666,Search Turn,0,1,0,-0.5,-1,false,false
19:42:55 GMT-0500 Sat Mar 12 2022,true,42,17.600113,-83,-42.605955,240.125,0,0,0,0,0,0,0,0,0,0,0,0,undefined,0,42,17.600400000000263,-83,-42.606369999999515,287.38,32.733333333333334,Search Turn,0,1,0,-0.5,-1,false,false
19:42:56 GMT-0500 Sat Mar 12 2022,true,42,17.600148,-83,-42.605996,220.6875,0,0,0,0,0,0,0,0,0,0,0,0,undefined,0,42,17.60048999999981,-83,-42.606400000000576,358.68,32.516666666666666,Search Turn,0,1,0,-0.5,-1,false,false
19:42:56 GMT-0500 Sat Mar 12 2022,true,42,17.600324,-83,-42.606047,208.4375,0.4368716997584195,0,0,0,0,0,0,0,0,0,0,0,undefined,0,42,17.600470000000314,-83,-42.606519999999364,256.86,12.033333333333333,Search Drive,0,1,1,-0.5,-1,false,false
19:42:57 GMT-0500 Sat Mar 12 2022,true,42,17.600507,-83,-42.606036,204.5625,1.317799025842153,0,0,0,0,0,0,0,0,0,0,0,undefined,0,42,17.600459999999657,-83,-42.60656999999992,999,4.366666666666666,Search Drive,0,1,1,-0.5,-1,false,false
19:42:57 GMT-0500 Sat Mar 12 2022,true,42,17.600724,-83,-42.605984,202.1875,0.9107032253184357,0,0,0,0,0,0,0,0,0,0,0,undefined,0,42,17.60044999999991,-83,-42.60663999999997,999,7.583333333333333,Search Drive,0,1,1,-0.5,-1,false,false
19:42:58 GMT-0500 Sat Mar 12 2022,true,42,17.600734,-83,-42.606047,197.875,0.4236323471649091,0,0,0,0,0,0,0,0,0,0,0,undefined,0,42,17.600430000000415,-83,-42.60666999999921,999,8.233333333333333,Search Drive,0,1,1,-0.5,-1,false,false
19:42:58 GMT-0500 Sat Mar 12 2022,true,42,17.600763,-83,-42.606087,195,0.6916626059807918,0,0,0,0,0,0,0,0,0,0,0,undefined,0,42,17.60030000000006,-83,-42.606700000000274,194.89,39.93333333333333,Search Drive,0,1,1,-0.5,-1,false,false
19:42:59 GMT-0500 Sat Mar 12 2022,true,42,17.600914,-83,-42.60611,191.125,1.650427427472721,0,0,0,0,0,0,0,0,0,0,0,undefined,0,42,17.600110000000313,-83,-42.60676000000058,188.95,42.31666666666667,Search Drive,0,1,1,-0.5,-1,false,false
19:42:59 GMT-0500 Sat Mar 12 2022,true,42,17.601001,-83,-42.606159,187.625,1.2369226768729773,0,0,0,0,0,0,0,0,0,0,0,undefined,0,42,17.599959999999555,-83,-42.606809999999314,194.71,41.016666666666666,Search Drive,0,1,1,-0.5,-1,false,false
19:43:00 GMT-0500 Sat Mar 12 2022,true,42,17.600946,-83,-42.606248,184.5,0.8222196958262841,0,0,0,0,0,0,0,0,0,0,0,undefined,0,42,17.599750000000313,-83,-42.60685000000012,188.55,49.61666666666667,Search Drive,0,1,1,-0.5,-1,false,false
19:43:00 GMT-0500 Sat Mar 12 2022,true,42,17.600801,-83,-42.606359,181.75,0.4219024926381895,0,0,0,0,0,0,0,0,0,0,0,undefined,0,42,17.59954999999991,-83,-42.606879999999364,185.51,46.3,Search Drive,0,1,1,-0.5,-1,false,false
19:43:01 GMT-0500 Sat Mar 12 2022,true,42,17.600471,-83,-42.606476,177.125,0.23733564379674968,0,0,0,0,0,0,0,0,0,0,0,undefined,0,42,17.599339999999756,-83,-42.60688999999911,178.36,48.43333333333333,Search Drive,0,1,1,-0.5,-1,false,false
19:43:01 GMT-0500 Sat Mar 12 2022,true,42,17.600174,-83,-42.606538,175.25,0.9609092157027201,0,0,0,0,0,0,0,0,0,0,0,undefined,0,42,17.599229999999807,-83,-42.60690000000068,180.97,44.11666666666667,Search Drive,0,1,1,-0.5,-1,false,false
19:43:02 GMT-0500 Sat Mar 12 2022,true,42,17.599338,-83,-42.606714,171.375,0,0,0,0,0,0,0,0,0,0,0,0,undefined,0,42,17.59896000000026,-83,-42.60686999999962,176.93,34.46666666666667,Search Turn,0,1,0,-0.5,-1,false,false
19:43:02 GMT-0500 Sat Mar 12 2022,true,42,17.59931,-83,-42.606732,159.25,0,0,0,0,0,0,0,0,0,0,0,0,undefined,0,42,17.598759999999857,-83,-42.606809999999314,169.8,43.65,Search Turn,0,1,0,-0.5,-1,false,false
19:43:03 GMT-0500 Sat Mar 12 2022,true,42,17.599269,-83,-42.606751,147.875,0,0,0,0,0,0,0,0,0,0,0,0,undefined,0,42,17.59860000000026,-83,-42.60676000000058,163.92,51.15,Search Turn,0,1,0,-0.5,-1,false,false
19:43:03 GMT-0500 Sat Mar 12 2022,true,42,17.599226,-83,-42.606768,135.25,0,0,0,0,0,0,0,0,0,0,0,0,undefined,0,42,17.598409999999603,-83,-42.60668000000078,158.33,43.833333333333336,Search Turn,0,1,0,-0.5,-1,false,false
19:43:04 GMT-0500 Sat Mar 12 2022,true,42,17.599147,-83,-42.606766,118.875,0,0,0,0,0,0,0,0,0,0,0,0,undefined,0,42,17.598229999999603,-83,-42.606589999999414,161.67,45.63333333333333,Search Turn,0,1,0,-0.5,-1,false,false
19:43:04 GMT-0500 Sat Mar 12 2022,true,42,17.599056,-83,-42.606754,103.8125,0,0,0,0,0,0,0,0,0,0,0,0,undefined,0,42,17.598159999999552,-83,-42.60656999999992,185.84,13.216666666666667,Search Turn,0,1,0,-0.5,-1,false,false
19:43:05 GMT-0500 Sat Mar 12 2022,true,42,17.59891,-83,-42.606704,95.6875,0.13621275680771092,0,0,0,0,0,0,0,0,0,0,0,undefined,0,42,17.59813000000031,-83,-42.606550000000425,125.26,18.433333333333334,Search Drive,0,1,1,-0.5,-1,false,false
19:43:05 GMT-0500 Sat Mar 12 2022,true,42,17.598654,-83,-42.606615,90.5,0.31606292608055797,0,0,0,0,0,0,0,0,0,0,0,undefined,0,42,17.598079999999754,-83,-42.60652999999911,161.72,11.866666666666667,Search Drive,0,1,1,-0.5,-1,false,false
19:43:06 GMT-0500 Sat Mar 12 2022,true,42,17.598511,-83,-42.606828,87.5625,1.0033822780967623,0,0,0,0,0,0,0,0,0,0,0,undefined,0,42,17.598049999999603,-83,-42.60649000000012,111.12,15.4,Search Drive,0,1,1,-0.5,-1,false,false
19:43:06 GMT-0500 Sat Mar 12 2022,true,42,17.598385,-83,-42.607186,84.375,1.5878285960071756,0,0,0,0,0,0,0,0,0,0,0,undefined,0,42,17.59802000000036,-83,-42.60644999999931,137.49,14.866666666666667,Search Drive,0,1,1,-0.5,-1,false,false
19:43:07 GMT-0500 Sat Mar 12 2022,true,42,17.598241,-83,-42.607785,80.625,2.5398813447014246,0,0,0,0,0,0,0,0,0,0,0,undefined,0,42,17.59799000000021,-83,-42.606410000000324,130.57,12.666666666666666,Search Drive,0,1,1,-0.5,-1,false,false
19:43:07 GMT-0500 Sat Mar 12 2022,true,42,17.598109,-83,-42.608262,78.8125,2.9538078942155734,0,0,0,0,0,0,0,0,0,0,0,undefined,0,42,17.59802000000036,-83,-42.60618000000068,79.82,40.75,Search Drive,0,1,1,-0.5,-1,false,false
19:43:08 GMT-0500 Sat Mar 12 2022,true,42,17.597977,-83,-42.6087,78.375,3.4957903312127403,0,0,0,0,0,0,0,0,0,0,0,undefined,0,42,17.598070000000007,-83,-42.60591999999997,78.95,45.9,Search Drive,0,1,1,-0.5,-1,false,false
19:43:08 GMT-0500 Sat Mar 12 2022,true,42,17.597884,-83,-42.608976,77.4375,3.3793970585534394,0,0,0,0,0,0,0,0,0,0,0,undefined,0,42,17.59813000000031,-83,-42.60569000000032,70.53,38.78333333333333,Search Drive,0,1,1,-0.5,-1,false,false
19:43:09 GMT-0500 Sat Mar 12 2022,true,42,17.597831,-83,-42.608973,76.4375,2.412998472608707,0,0,0,0,0,0,0,0,0,0,0,undefined,0,42,17.598219999999856,-83,-42.60541999999987,68.17,52.35,Search Drive,0,1,1,-0.5,-1,false,false
19:43:09 GMT-0500 Sat Mar 12 2022,true,42,17.597815,-83,-42.608805,75.4375,2.8704588532993407,0,0,0,0,0,0,0,0,0,0,0,undefined,0,42,17.59828000000016,-83,-42.605250000000524,62.19,41.333333333333336,Search Drive,0,1,1,-0.5,-1,false,false
19:43:10 GMT-0500 Sat Mar 12 2022,true,42,17.597808,-83,-42.608686,75,2.674449377271939,0,0,0,0,0,0,0,0,0,0,0,undefined,0,42,17.59835000000021,-83,-42.60505000000012,66.17,43.05,Search Drive,0,1,1,-0.5,-1,false,false
19:43:10 GMT-0500 Sat Mar 12 2022,true,42,17.597859,-83,-42.608253,73.9375,1.7804879427839488,0,0,0,0,0,0,0,0,0,0,0,undefined,0,42,17.59842000000026,-83,-42.60486999999921,65.85,27.066666666666666,Search Drive,0,1,1,-0.5,-1,false,false
19:43:11 GMT-0500 Sat Mar 12 2022,true,42,17.597939,-83,-42.607765,72.1875,1.2631788341347598,0,0,0,0,0,0,0,0,0,0,0,undefined,0,42,17.598500000000058,-83,-42.604670000000624,55.52,34.016666666666666,Search Drive,0,1,1,-0.5,-1,false,false
19:43:11 GMT-0500 Sat Mar 12 2022,true,42,17.597984,-83,-42.607463,71.625,1.8419456560395127,0,0,0,0,0,0,0,0,0,0,0,undefined,0,42,17.59856000000036,-83,-42.60447999999997,50.33,44.516666666666666,Search Drive,0,1,1,-0.5,-1,false,false
19:43:12 GMT-0500 Sat Mar 12 2022,true,42,17.598038,-83,-42.607131,71.375,1.2411842390039671,0,0,0,0,0,0,0,0,0,0,0,undefined,0,42,17.598610000000008,-83,-42.60433000000012,9.08,12.866666666666667,Search Drive,0,1,1,-0.5,-1,false,false
19:43:12 GMT-0500 Sat Mar 12 2022,true,42,17.59816,-83,-42.606569,70.6875,0.20777415655105505,0,0,0,0,0,0,0,0,0,0,0,undefined,0,42,17.59868000000006,-83,-42.60418000000027,68.32,37.13333333333333,Search Drive,0,1,1,-0.5,-1,false,false
19:43:13 GMT-0500 Sat Mar 12 2022,true,42,17.598296,-83,-42.605989,70.25,0.48368021665200495,0,0,0,0,0,0,0,0,0,0,0,undefined,0,42,17.598759999999857,-83,-42.604049999999916,46.09,29.3,Search Drive,0,1,1,-0.5,-1,false,false
19:43:13 GMT-0500 Sat Mar 12 2022,true,42,17.598399,-83,-42.605578,69.5,0.5277073625028987,0,0,0,0,0,0,0,0,0,0,0,undefined,0,42,17.598829999999907,-83,-42.60389000000032,45.61,32.25,Search Drive,0,1,1,-0.5,-1,false,false
19:43:14 GMT-0500 Sat Mar 12 2022,true,42,17.598486,-83,-42.605281,69.0625,0.05203195668783651,0,0,0,0,0,0,0,0,0,0,0,undefined,0,42,17.598939999999857,-83,-42.60373000000072,46.97,36.7,Search Drive,0,1,1,-0.5,-1,false,false
19:43:14 GMT-0500 Sat Mar 12 2022,true,42,17.598858,-83,-42.60415,68.3125,0,0,0,0,0,0,0,0,0,0,0,0,undefined,0,42,17.599009999999907,-83,-42.60355999999956,59.24,33.78333333333334,Search Turn,0,1,0,-0.5,-1,false,false
19:43:15 GMT-0500 Sat Mar 12 2022,true,42,17.59887,-83,-42.604109,65.25,0,0,0,0,0,0,0,0,0,0,0,0,undefined,0,42,17.599100000000362,-83,-42.60338000000047,58.01,35.016666666666666,Search Turn,0,1,0,-0.5,-1,false,false
19:43:15 GMT-0500 Sat Mar 12 2022,true,42,17.598898,-83,-42.604023,62.375,0,0,0,0,0,0,0,0,0,0,0,0,undefined,0,42,17.599170000000413,-83,-42.60319999999956,58.27,28.7,Search Turn,0,1,0,-0.5,-1,false,false
19:43:16 GMT-0500 Sat Mar 12 2022,true,42,17.598922,-83,-42.603953,55.25,0,0,0,0,0,0,0,0,0,0,0,0,undefined,0,42,17.59925000000021,-83,-42.60306999999921,52.26,34.6,Search Turn,0,1,0,-0.5,-1,false,false
19:43:16 GMT-0500 Sat Mar 12 2022,true,42,17.598951,-83,-42.603873,43.75,0,0,0,0,0,0,0,0,0,0,0,0,undefined,0,42,17.599309999999605,-83,-42.60290999999961,88.65,15.866666666666667,Search Turn,0,1,0,-0.5,-1,false,false
19:43:17 GMT-0500 Sat Mar 12 2022,true,42,17.599,-83,-42.603764,30,0,0,0,0,0,0,0,0,0,0,0,0,undefined,0,42,17.599409999999807,-83,-42.60274000000027,51.29,33.85,Search Turn,0,1,0,-0.5,-1,false,false
19:43:17 GMT-0500 Sat Mar 12 2022,true,42,17.599043,-83,-42.603662,16.125,0,0,0,0,0,0,0,0,0,0,0,0,undefined,0,42,17.599449999999706,-83,-42.602679999999964,999,1.3,Search Turn,0,1,0,-0.5,-1,false,false
19:43:18 GMT-0500 Sat Mar 12 2022,true,42,17.599091,-83,-42.603567,5.5,0,0,0,0,0,0,0,0,0,0,0,0,undefined,0,42,17.59947000000011,-83,-42.60266000000047,999,1.6333333333333333,Search Turn,0,1,0,-0.5,-1,false,false
19:43:18 GMT-0500 Sat Mar 12 2022,true,42,17.599091,-83,-42.603497,354.875,0,0,0,0,0,0,0,0,0,0,0,0,undefined,0,42,17.59947000000011,-83,-42.60265000000072,999,0.03333333333333333,Search Turn,0,1,0,-0.5,-1,false,false
19:43:19 GMT-0500 Sat Mar 12 2022,true,42,17.599136,-83,-42.603423,341.4375,0,0,0,0,0,0,0,0,0,0,0,0,undefined,0,42,17.599489999999605,-83,-42.60261999999966,27.89,11.383333333333333,Search Turn,0,1,0,-0.5,-1,false,false
19:43:19 GMT-0500 Sat Mar 12 2022,true,42,17.599178,-83,-42.603358,327.25,0,0,0,0,0,0,0,0,0,0,0,0,undefined,0,42,17.59951000000001,-83,-42.60260999999991,999,7.9,Search Turn,0,1,0,-0.5,-1,false,false
19:43:20 GMT-0500 Sat Mar 12 2022,true,42,17.599877,-83,-42.603965,313.75,0,0,0,0,0,0,0,0,0,0,0,0,undefined,0,42,17.599519999999757,-83,-42.60259000000042,999,4.783333333333333,Search Turn,0,1,0,-0.5,-1,false,false
19:43:20 GMT-0500 Sat Mar 12 2022,true,42,17.599852,-83,-42.603853,301.1875,0,0,0,0,0,0,0,0,0,0,0,0,undefined,0,42,17.59954999999991,-83,-42.60260999999991,999,7.733333333333333,Search Turn,0,1,0,-0.5,-1,false,false
19:43:21 GMT-0500 Sat Mar 12 2022,true,42,17.599838,-83,-42.603786,291.9375,0,0,0,0,0,0,0,0,0,0,0,0,undefined,0,42,17.59958000000006,-83,-42.60262999999941,309.59,15.1,Search Turn,0,1,0,-0.5,-1,false,false
19:43:21 GMT-0500 Sat Mar 12 2022,true,42,17.599822,-83,-42.603708,282.375,0,0,0,0,0,0,0,0,0,0,0,0,undefined,0,42,17.59961000000021,-83,-42.60262999999941,999,10.183333333333334,Search Turn,0,1,0,-0.5,-1,false,false
19:43:22 GMT-0500 Sat Mar 12 2022,true,42,17.59981,-83,-42.603635,273.4375,0,0,0,0,0,0,0,0,0,0,0,0,undefined,0,42,17.599669999999605,-83,-42.60267000000022,337.94,9.266666666666667,Search Turn,0,1,0,-0.5,-1,false,false
19:43:22 GMT-0500 Sat Mar 12 2022,true,42,17.5998,-83,-42.603539,258.8125,0,0,0,0,0,0,0,0,0,0,0,0,undefined,0,42,17.599710000000414,-83,-42.60269999999946,999,3.95,Search Turn,0,1,0,-0.5,-1,false,false
19:43:23 GMT-0500 Sat Mar 12 2022,true,42,17.599799,-83,-42.603479,249.6875,0,0,0,0,0,0,0,0,0,0,0,0,undefined,0,42,17.599750000000313,-83,-42.60273000000052,999,3.1,Search Turn,0,1,0,-0.5,-1,false,false
19:43:23 GMT-0500 Sat Mar 12 2022,true,42,17.599826,-83,-42.603233,244.4375,0.8421553900969924,0,0,0,0,0,0,0,0,0,0,0,undefined,0,42,17.59979999999996,-83,-42.60276999999951,999,8.3,Search Drive,0,1,1,-0.5,-1,false,false
19:43:24 GMT-0500 Sat Mar 12 2022,true,42,17.599981,-83,-42.602712,241.125,2.031450742130223,0,0,0,0,0,0,0,0,0,0,0,undefined,0,42,17.599860000000263,-83,-42.60282999999981,999,10.183333333333334,Search Drive,0,1,1,-0.5,-1,false,false
19:43:24 GMT-0500 Sat Mar 12 2022,true,42,17.600224,-83,-42.602049,237.875,2.929963053107383,0,0,0,0,0,0,0,0,0,0,0,undefined,0,42,17.599919999999656,-83,-42.60287000000062,313.72,10.1,Search Drive,0,1,1,-0.27027727615146896,-1,false,false
19:43:25 GMT-0500 Sat Mar 12 2022,true,42,17.600446,-83,-42.601497,236.875,2.8223453291239156,0,0,0,0,0,0,0,0,0,0,0,undefined,0,42,17.599919999999656,-83,-42.60290999999961,999,10.7,Search Drive,0,1,1,-0.1482435760497571,-1,false,false
19:43:25 GMT-0500 Sat Mar 12 2022,true,42,17.60063,-83,-42.601036,236.1875,2.703501453772212,0,0,0,0,0,0,0,0,0,0,0,undefined,0,42,17.59990000000016,-83,-42.60302000000047,261.59,26.8,Search Drive,0,1,1,0.03879255320714881,-1,false,false
19:43:26 GMT-0500 Sat Mar 12 2022,true,42,17.600736,-83,-42.600782,237.375,1.3574554258276543,0,0,0,0,0,0,0,0,0,0,0,undefined,0,42,17.59987000000001,-83,-42.60303000000022,999,4.383333333333334,Search Drive,0,1,1,0.05667000308130743,-1,false,false
19:43:26 GMT-0500 Sat Mar 12 2022,true,42,17.60058,-83,-42.601103,237.625,0.21284026957114605,0,0,0,0,0,0,0,0,0,0,0,undefined,0,42,17.59976000000006,-83,-42.60318999999981,218.55,50.86666666666667,Search Drive,0,1,1,0.16826111394251653,-1,false,false
19:43:27 GMT-0500 Sat Mar 12 2022,true,42,17.600346,-83,-42.601594,236.25,0.24300100358950608,0,0,0,0,0,0,0,0,0,0,0,undefined,0,42,17.599659999999858,-83,-42.60335999999916,261.18,30.333333333333332,Search Drive,0,1,1,0.4001380397176804,-1,false,false
19:43:27 GMT-0500 Sat Mar 12 2022,true,42,17.60015,-83,-42.601982,239.0625,0.8197850045979451,0,0,0,0,0,0,0,0,0,0,0,undefined,0,42,17.599479999999858,-83,-42.60353000000032,223.88,41.18333333333333,Search Drive,0,1,1,0.4328050822691473,-1,false,false
19:43:28 GMT-0500 Sat Mar 12 2022,true,42,17.600047,-83,-42.602125,239.5,1.2106578767174958,0,0,0,0,0,0,0,0,0,0,0,undefined,0,42,17.59929000000011,-83,-42.60371999999916,215.74,54.516666666666666,Search Drive,0,1,1,0.5,-1,false,false
19:43:28 GMT-0500 Sat Mar 12 2022,true,42,17.599905,-83,-42.602309,240.5625,0.8842457047488587,0,0,0,0,0,0,0,0,0,0,0,undefined,0,42,17.599100000000362,-83,-42.60391999999956,216.72,55.45,Search Drive,0,1,1,0.5,-1,false,false
19:43:29 GMT-0500 Sat Mar 12 2022,true,42,17.59975,-83,-42.602486,241.5,1.107345164677407,0,0,0,0,0,0,0,0,0,0,0,undefined,0,42,17.59885000000031,-83,-42.604129999999714,223.1,98.45,Search Drive,0,1,1,0.5,-1,false,false
19:43:29 GMT-0500 Sat Mar 12 2022,true,42,17.599601,-83,-42.602566,242.5625,1.5597738337053177,0,0,0,0,0,0,0,0,0,0,0,undefined,0,42,17.59874000000036,-83,-42.60421999999926,231.52,44.53333333333333,Search Drive,0,1,1,0.5,-1,false,false
19:43:30 GMT-0500 Sat Mar 12 2022,true,42,17.599461,-83,-42.602613,243.0625,1.3317784062178109,0,0,0,0,0,0,0,0,0,0,0,undefined,0,42,17.598610000000008,-83,-42.60432000000037,234.37,54.11666666666667,Search Drive,0,1,1,0.5,-1,false,false
19:43:30 GMT-0500 Sat Mar 12 2022,true,42,17.599273,-83,-42.602795,244.125,0.8127148888465683,0,0,0,0,0,0,0,0,0,0,0,undefined,0,42,17.598479999999654,-83,-42.604450000000725,222.09,49.88333333333333,Search Drive,0,1,1,0.5,-1,false,false
19:43:31 GMT-0500 Sat Mar 12 2022,true,42,17.599116,-83,-42.601976,245.0625,0,0,0,0,0,0,0,0,0,0,0,0,undefined,0,42,17.59835000000021,-83,-42.60456999999951,209.33,28.25,Search Turn,0,1,0,0.5,-1,false,false
19:43:31 GMT-0500 Sat Mar 12 2022,true,42,17.599049,-83,-42.602188,246.75,0,0,0,0,0,0,0,0,0,0,0,0,undefined,0,42,17.598219999999856,-83,-42.60470999999961,212.74,34.916666666666664,Search Turn,0,1,0,0.5,-1,false,false
19:43:32 GMT-0500 Sat Mar 12 2022,true,42,17.598985,-83,-42.602374,248.5,0,0,0,0,0,0,0,0,0,0,0,0,undefined,0,42,17.59810000000016,-83,-42.60483999999997,208.01,31.483333333333334,Search Turn,0,1,0,0.5,-1,false,false
19:43:32 GMT-0500 Sat Mar 12 2022,true,42,17.598895,-83,-42.602619,254.625,0,0,0,0,0,0,0,0,0,0,0,0,undefined,0,42,17.597999999999956,-83,-42.60495000000083,218.84,30.766666666666666,Search Turn,0,1,0,0.5,-1,false,false
19:43:33 GMT-0500 Sat Mar 12 2022,true,42,17.598807,-83,-42.602815,261.8125,0,0,0,0,0,0,0,0,0,0,0,0,undefined,0,42,17.597859999999855,-83,-42.605100000000675,213.62,36.266666666666666,Search Turn,0,1,0,0.5,-1,false,false
19:43:33 GMT-0500 Sat Mar 12 2022,true,42,17.59871,-83,-42.603043,271.4375,0,0,0,0,0,0,0,0,0,0,0,0,undefined,0,42,17.597749999999905,-83,-42.60524000000078,221.69,34.15,Search Turn,0,1,0,0.5,-1,false,false
19:43:34 GMT-0500 Sat Mar 12 2022,true,42,17.598611,-83,-42.603246,284.4375,0,0,0,0,0,0,0,0,0,0,0,0,undefined,0,42,17.59763000000021,-83,-42.60540000000037,226.15,39.36666666666667,Search Turn,0,1,0,0.5,-1,false,false
19:43:34 GMT-0500 Sat Mar 12 2022,true,42,17.598535,-83,-42.603524,300.875,0,0,0,0,0,0,0,0,0,0,0,0,undefined,0,42,17.597560000000158,-83,-42.60548999999992,217.91,17.666666666666668,Search Turn,0,1,0,0.5,-1,false,false
19:43:35 GMT-0500 Sat Mar 12 2022,true,42,17.598366,-83,-42.603858,313.875,0.47875592831536284,0,0,0,0,0,0,0,0,0,0,0,undefined,0,42,17.597530000000006,-83,-42.60551999999916,999,5.133333333333334,Search Drive,0,1,1,0.5,-1,false,false
19:43:35 GMT-0500 Sat Mar 12 2022,true,42,17.598514,-83,-42.60454,319.3125,0,0,0,0,0,0,0,0,0,0,0,0,undefined,0,42,17.59752000000026,-83,-42.605499999999665,999,5.683333333333334,Search Turn,0,1,0,0.5,-1,false,false
19:43:36 GMT-0500 Sat Mar 12 2022,true,42,17.598425,-83,-42.604598,331.8125,0,0,0,0,0,0,0,0,0,0,0,0,undefined,0,42,17.597530000000006,-83,-42.605460000000676,999,6.133333333333334,Search Turn,0,1,0,0.5,-1,false,false
19:43:36 GMT-0500 Sat Mar 12 2022,true,42,17.598348,-83,-42.604658,347.375,0,0,0,0,0,0,0,0,0,0,0,0,undefined,0,42,17.597539999999753,-83,-42.605390000000625,85.25,25.366666666666667,Search Turn,0,1,0,0.5,-1,false,false
19:43:37 GMT-0500 Sat Mar 12 2022,true,42,17.59824,-83,-42.604736,0.5,0.00007802474634295488,0,0,0,0,0,0,0,0,0,0,0,undefined,0,42,17.597530000000006,-83,-42.60534999999982,999,8.566666666666666,Search Drive,0,1,1,0.5,-1,false,false
19:43:37 GMT-0500 Sat Mar 12 2022,true,42,17.59803,-83,-42.604857,7.125,0.9326206891256059,0,0,0,0,0,0,0,0,0,0,0,undefined,0,42,17.597509999999602,-83,-42.605279999999766,140.72,11.466666666666667,Search Drive,0,1,1,0.5,-1,false,false
19:43:38 GMT-0500 Sat Mar 12 2022,true,42,17.597697,-83,-42.604976,10.75,1.0160193643886084,0,0,0,0,0,0,0,0,0,0,0,undefined,0,42,17.597490000000107,-83,-42.60521999999946,151.69,16.25,Search Drive,0,1,1,0.5,-1,false,false
19:43:38 GMT-0500 Sat Mar 12 2022,true,42,17.597531,-83,-42.605046,13.9375,0.3896147668712328,0,0,0,0,0,0,0,0,0,0,0,undefined,0,42,17.59755000000041,-83,-42.60536999999931,283.96,25.1,Search Drive,0,1,1,0.5,-1,false,false
19:43:39 GMT-0500 Sat Mar 12 2022,true,42,17.597582,-83,-42.605064,17.1875,0.5649956720700537,0,0,0,0,0,0,0,0,0,0,0,undefined,0,42,17.59755000000041,-83,-42.60536999999931,999,7.2,Search Drive,0,1,1,0.5,-1,false,false
19:43:39 GMT-0500 Sat Mar 12 2022,true,42,17.597686,-83,-42.605062,20.5,0.3463050227101028,0,0,0,0,0,0,0,0,0,0,0,undefined,0,42,17.597509999999602,-83,-42.60533000000032,154.9,17.45,Search Drive,0,1,1,0.5,-1,false,false
19:43:40 GMT-0500 Sat Mar 12 2022,true,42,17.597651,-83,-42.605115,22.3125,0.47648265732322015,0,0,0,0,0,0,0,0,0,0,0,undefined,0,42,17.597490000000107,-83,-42.60531000000083,159.52,15.3,Search Drive,0,1,1,0.5,-1,false,false
19:43:40 GMT-0500 Sat Mar 12 2022,true,42,17.597559,-83,-42.605194,25.6875,0.13351718390979347,0,0,0,0,0,0,0,0,0,0,0,undefined,0,42,17.597509999999602,-83,-42.60529999999926,348.79,24.866666666666667,Search Drive,0,1,1,0.5,-1,false,false
19:43:41 GMT-0500 Sat Mar 12 2022,true,42,17.597649,-83,-42.605184,28.8125,0.48216767928965426,0,0,0,0,0,0,0,0,0,0,0,undefined,0,42,17.597670000000107,-83,-42.60534999999982,341.4,38.1,Search Drive,0,1,1,0.25726180606781096,-1,false,false
19:43:41 GMT-0500 Sat Mar 12 2022,true,42,17.597726,-83,-42.605199,29.5,0.08629607195716814,0,0,0,0,0,0,0,0,0,0,0,undefined,0,42,17.59781000000021,-83,-42.60536999999931,343.93,33.35,Search Drive,0,1,1,0.1638093059842627,-1,false,false
19:43:42 GMT-0500 Sat Mar 12 2022,true,42,17.597671,-83,-42.605392,30.25,0.7814718075500063,0,0,0,0,0,0,0,0,0,0,0,undefined,0,42,17.59802000000036,-83,-42.605390000000625,356.32,33.083333333333336,Search Drive,0,1,1,0.1687028182236214,-1,false,false
19:43:42 GMT-0500 Sat Mar 12 2022,true,42,17.597655,-83,-42.605521,30.8125,0.8092498098146462,0,0,0,0,0,0,0,0,0,0,0,undefined,0,42,17.59817000000021,-83,-42.60540000000037,354.77,40.45,Search Drive,0,1,1,0.22406848303132032,-1,false,false
19:43:43 GMT-0500 Sat Mar 12 2022,true,42,17.597707,-83,-42.60564,31.9375,0.3738651284352939,0,0,0,0,0,0,0,0,0,0,0,undefined,0,42,17.59835000000021,-83,-42.60541000000012,349.71,39.3,Search Drive,0,1,1,0.3147564021376813,-1,false,false
19:43:43 GMT-0500 Sat Mar 12 2022,true,42,17.59795,-83,-42.605603,34.1875,0.2204497105094565,0,0,0,0,0,0,0,0,0,0,0,undefined,0,42,17.598519999999553,-83,-42.60538000000088,4.42,33.583333333333336,Search Drive,0,1,1,0.4129536907617887,-1,false,false
19:43:44 GMT-0500 Sat Mar 12 2022,true,42,17.598166,-83,-42.605593,36.1875,0.2480239851963659,0,0,0,0,0,0,0,0,0,0,0,undefined,0,42,17.59871000000021,-83,-42.60534000000007,8.98,39.733333333333334,Search Drive,0,1,1,0.5,-1,false,false
19:43:44 GMT-0500 Sat Mar 12 2022,true,42,17.598428,-83,-42.605532,40.1875,0.7945530577947907,0,0,0,0,0,0,0,0,0,0,0,undefined,0,42,17.59889000000021,-83,-42.60528999999951,14.86,41.31666666666667,Search Drive,0,1,1,0.5,-1,false,false
19:43:45 GMT-0500 Sat Mar 12 2022,true,42,17.598629,-83,-42.605487,43.0625,0.4372269243191541,0,0,0,0,0,0,0,0,0,0,0,undefined,0,42,17.599119999999857,-83,-42.605250000000524,6.34,49.93333333333333,Search Drive,0,1,1,0.5,-1,false,false
19:43:45 GMT-0500 Sat Mar 12 2022,true,42,17.598867,-83,-42.605456,46,0.46045091504216423,0,0,0,0,0,0,0,0,0,0,0,undefined,0,42,17.599339999999756,-83,-42.60519000000022,7.7,42.78333333333333,Search Drive,0,1,1,0.5,-1,false,false
19:43:46 GMT-0500 Sat Mar 12 2022,true,42,17.599087,-83,-42.605435,52.4375,0.5810888909827939,0,0,0,0,0,0,0,0,0,0,0,undefined,0,42,17.599489999999605,-83,-42.605170000000726,357.83,34.13333333333333,Search Drive,0,1,1,0.5,-1,false,false
19:43:46 GMT-0500 Sat Mar 12 2022,true,42,17.599314,-83,-42.605422,55.25,0.6008537318153349,0,0,0,0,0,0,0,0,0,0,0,undefined,0,42,17.59972999999991,-83,-42.60512000000017,2.85,65.96666666666667,Search Drive,0,1,1,0.5,-1,false,false
19:43:47 GMT-0500 Sat Mar 12 2022,true,42,17.599497,-83,-42.606439,60,0,0,0,0,0,0,0,0,0,0,0,0,undefined,0,42,17.599879999999757,-83,-42.605069999999614,6.42,41.35,Search Turn,0,1,0,0.5,-1,false,false
19:43:47 GMT-0500 Sat Mar 12 2022,true,42,17.599531,-83,-42.606342,65.5625,0,0,0,0,0,0,0,0,0,0,0,0,undefined,0,42,17.600059999999758,-83,-42.60500999999931,23.79,31.483333333333334,Search Turn,0,1,0,0.5,-1,false,false
19:43:48 GMT-0500 Sat Mar 12 2022,true,42,17.599577,-83,-42.606231,74.6875,0,0,0,0,0,0,0,0,0,0,0,0,undefined,0,42,17.600070000000414,-83,-42.60502000000088,40.9,14.2,Search Turn,0,1,0,0.5,-1,false,false
19:43:48 GMT-0500 Sat Mar 12 2022,true,42,17.59963,-83,-42.606108,82.5625,0,0,0,0,0,0,0,0,0,0,0,0,undefined,0,42,17.60019999999986,-83,-42.604960000000574,29.74,46.68333333333333,Search Turn,0,1,0,0.5,-1,false,false
19:43:49 GMT-0500 Sat Mar 12 2022,true,42,17.599845,-83,-42.60575,88.4375,0.30107064628435143,0,0,0,0,0,0,0,0,0,0,0,undefined,0,42,17.60077000000001,-83,-42.60447999999997,999,5.816666666666666,Search Drive,0,1,1,0.5,-1,false,false
19:43:49 GMT-0500 Sat Mar 12 2022,true,42,17.600007,-83,-42.605205,94.0625,0,0,0,0,0,0,0,0,0,0,0,0,undefined,0,42,17.600760000000264,-83,-42.604409999999916,103.11,14.866666666666667,Search Turn,0,1,0,0.5,-1,false,false
19:43:50 GMT-0500 Sat Mar 12 2022,true,42,17.600044,-83,-42.60517,100.8125,0,0,0,0,0,0,0,0,0,0,0,0,undefined,0,42,17.600760000000264,-83,-42.604380000000674,225.39,13.1,Search Turn,0,1,0,0.5,-1,false,false
19:43:50 GMT-0500 Sat Mar 12 2022,true,42,17.600112,-83,-42.605109,114.3125,0,0,0,0,0,0,0,0,0,0,0,0,undefined,0,42,17.600749999999607,-83,-42.60440000000017,999,5.466666666666667,Search Turn,0,1,0,0.5,-1,false,false
19:43:51 GMT-0500 Sat Mar 12 2022,true,42,17.600157,-83,-42.605041,125,0,0,0,0,0,0,0,0,0,0,0,0,undefined,0,42,17.600760000000264,-83,-42.60440000000017,999,9.183333333333334,Search Turn,0,1,0,0.5,-1,false,false
19:43:51 GMT-0500 Sat Mar 12 2022,true,42,17.600221,-83,-42.604973,131.5625,0.11265559659849851,0,0,0,0,0,0,0,0,0,0,0,undefined,0,42,17.600749999999607,-83,-42.604339999999866,106.01,15.616666666666667,Search Drive,0,1,1,0.5,-1,false,false
19:43:52 GMT-0500 Sat Mar 12 2022,true,42,17.600327,-83,-42.604731,138.0625,0.15099791689903905,0,0,0,0,0,0,0,0,0,0,0,undefined,0,42,17.600730000000112,-83,-42.60427999999956,94.94,19.683333333333334,Search Drive,0,1,1,0.5,-1,false,false
19:43:52 GMT-0500 Sat Mar 12 2022,true,42,17.600351,-83,-42.604588,141.375,0.3358217242256168,0,0,0,0,0,0,0,0,0,0,0,undefined,0,42,17.600639999999657,-83,-42.60419000000002,143.12,40.53333333333333,Search Drive,0,1,1,0.5,-1,false,false
19:43:53 GMT-0500 Sat Mar 12 2022,true,42,17.600417,-83,-42.604478,151.375,0.7536845688189442,0,0,0,0,0,0,0,0,0,0,0,undefined,0,42,17.60055999999986,-83,-42.60411000000022,140.45,19.333333333333332,Search Drive,0,1,1,0.5,-1,false,false
19:43:53 GMT-0500 Sat Mar 12 2022,true,42,17.600651,-83,-42.604511,154.75,1.176026267318843,0,0,0,0,0,0,0,0,0,0,0,undefined,0,42,17.600470000000314,-83,-42.60402000000067,121.59,33.083333333333336,Search Drive,0,1,1,0.5,-1,false,false
19:43:54 GMT-0500 Sat Mar 12 2022,true,42,17.600891,-83,-42.604542,160,1.4019710617496994,0,0,0,0,0,0,0,0,0,0,0,undefined,0,42,17.600260000000162,-83,-42.60385999999926,155.78,50,Search Drive,0,1,1,0.5,-1,false,false
19:43:54 GMT-0500 Sat Mar 12 2022,true,42,17.601229,-83,-42.604621,163.625,2.3551385678431602,0,0,0,0,0,0,0,0,0,0,0,undefined,0,42,17.60012000000006,-83,-42.60376999999971,131.38,55.55,Search Drive,0,1,1,0.5,-1,false,false
19:43:55 GMT-0500 Sat Mar 12 2022,true,42,17.601425,-83,-42.604637,167.875,2.5348853290958564,0,0,0,0,0,0,0,0,0,0,0,undefined,0,42,17.599989999999707,-83,-42.60368000000017,160.03,38.36666666666667,Search Drive,0,1,1,0.5,-1,false,false
19:43:55 GMT-0500 Sat Mar 12 2022,true,42,17.601661,-83,-42.604628,171.375,3.5903031702244204,0,0,0,0,0,0,0,0,0,0,0,undefined,0,42,17.59990999999991,-83,-42.60362999999961,158.5,24.7,Search Drive,0,1,1,0.5,-1,false,false
19:43:56 GMT-0500 Sat Mar 12 2022,true,42,17.602018,-83,-42.604597,175.625,3.9981203286498883,0,0,0,0,0,0,0,0,0,0,0,undefined,0,42,17.59976000000006,-83,-42.60353000000032,163.5,48.666666666666664,Search Drive,0,1,1,0.5,-1,false,false
19:43:56 GMT-0500 Sat Mar 12 2022,true,42,17.602288,-83,-42.604508,179.6875,4.223798760927398,0,0,0,0,0,0,0,0,0,0,0,undefined,0,42,17.59961000000021,-83,-42.60345000000052,156.83,40.56666666666667,Search Drive,0,1,1,0.5,-1,false,false
19:43:57 GMT-0500 Sat Mar 12 2022,true,42,17.602506,-83,-42.604366,182.6875,4.1800498081842035,0,0,0,0,0,0,0,0,0,0,0,undefined,0,42,17.599449999999706,-83,-42.60339000000022,162.15,40.85,Search Drive,0,1,1,0.5,-1,false,false
19:43:57 GMT-0500 Sat Mar 12 2022,true,42,17.602565,-83,-42.604188,186.625,3.994890335360458,0,0,0,0,0,0,0,0,0,0,0,undefined,0,42,17.59929000000011,-83,-42.60333999999966,171.88,42.06666666666667,Search Drive,0,1,1,0.5,-1,false,false
19:43:58 GMT-0500 Sat Mar 12 2022,true,42,17.602554,-83,-42.604025,192.1875,4.051846690685994,0,0,0,0,0,0,0,0,0,0,0,undefined,0,42,17.599019999999655,-83,-42.60334999999941,189.29,88.9,Search Drive,0,1,1,0.5,-1,false,false
19:43:58 GMT-0500 Sat Mar 12 2022,true,42,17.602301,-83,-42.603841,197.125,2.768355303702062,0,0,0,0,0,0,0,0,0,0,0,undefined,0,42,17.59889000000021,-83,-42.60326999999961,999,9.833333333333334,Search Drive,0,1,1,0.5,-1,false,false
19:43:59 GMT-0500 Sat Mar 12 2022,true,42,17.602016,-83,-42.603623,201.1875,3.7624110229799492,0,0,0,0,0,0,0,0,0,0,0,undefined,0,42,17.59875000000011,-83,-42.603250000000116,116.4,39.833333333333336,Search Drive,0,1,1,0.5,-1,false,false
19:43:59 GMT-0500 Sat Mar 12 2022,true,42,17.601918,-83,-42.603299,205.375,3.172017305181058,0,0,0,0,0,0,0,0,0,0,0,undefined,0,42,17.598659999999654,-83,-42.60332000000017,49.76,26.733333333333334,Search Drive,0,1,1,0.5,-1,false,false
19:44:00 GMT-0500 Sat Mar 12 2022,true,42,17.601686,-83,-42.603056,208.1875,3.2187321712243997,0,0,0,0,0,0,0,0,0,0,0,undefined,0,42,17.598500000000058,-83,-42.603399999999965,200.55,32.016666666666666,Search Drive,0,1,1,0.5,-1,false,false
19:44:00 GMT-0500 Sat Mar 12 2022,true,42,17.601544,-83,-42.60283,211.375,3.673320196671847,0,0,0,0,0,0,0,0,0,0,0,undefined,0,42,17.598329999999805,-83,-42.60349999999926,192.7,32.18333333333333,Search Drive,0,1,1,0.5,-1,false,false
19:44:01 GMT-0500 Sat Mar 12 2022,true,42,17.601324,-83,-42.602594,215.125,3.3172240697376525,0,0,0,0,0,0,0,0,0,0,0,undefined,0,42,17.59817000000021,-83,-42.60359000000062,198.16,39.583333333333336,Search Drive,0,1,1,0.5,-1,false,false
19:44:01 GMT-0500 Sat Mar 12 2022,true,42,17.601106,-83,-42.602362,219.125,3.163223909593897,0,0,0,0,0,0,0,0,0,0,0,undefined,0,42,17.597999999999956,-83,-42.60371999999916,202.19,37.96666666666667,Search Drive,0,1,1,0.5,-1,false,false
19:44:02 GMT-0500 Sat Mar 12 2022,true,42,17.600718,-83,-42.602332,223,2.2570062891830704,0,0,0,0,0,0,0,0,0,0,0,undefined,0,42,17.597869999999602,-83,-42.60382000000027,207.96,38.9,Search Drive,0,1,1,0.5,-1,false,false
19:44:02 GMT-0500 Sat Mar 12 2022,true,42,17.600301,-83,-42.602356,226.375,1.8787662673630519,0,0,0,0,0,0,0,0,0,0,0,undefined,0,42,17.597710000000006,-83,-42.60396000000037,209.19,41.8,Search Drive,0,1,1,0.5,-1,false,false
19:44:03 GMT-0500 Sat Mar 12 2022,true,42,17.599853,-83,-42.602449,230.25,1.503757005099512,0,0,0,0,0,0,0,0,0,0,0,undefined,0,42,17.597569999999905,-83,-42.60405999999966,209.1,39.7,Search Drive,0,1,1,0.5,-1,false,false
19:44:03 GMT-0500 Sat Mar 12 2022,true,42,17.599474,-83,-42.602584,233.8125,1.154026976540541,0,0,0,0,0,0,0,0,0,0,0,undefined,0,42,17.597420000000056,-83,-42.60418000000027,217.23,42.75,Search Drive,0,1,1,0.5,-1,false,false
19:44:04 GMT-0500 Sat Mar 12 2022,true,42,17.59963,-83,-42.601696,238.125,0,0,0,0,0,0,0,0,0,0,0,0,undefined,0,42,17.597289999999703,-83,-42.60431000000062,223.68,40.9,Search Turn,0,1,0,0.5,-1,false,false
19:44:04 GMT-0500 Sat Mar 12 2022,true,42,17.599201,-83,-42.60218,251.1875,0.17637793527734932,0,0,0,0,0,0,0,0,0,0,0,undefined,0,42,17.597160000000258,-83,-42.60446000000047,221.4,33.75,Search Drive,0,1,1,0.5,-1,false,false
19:44:05 GMT-0500 Sat Mar 12 2022,true,42,17.598894,-83,-42.602118,256,0,0,0,0,0,0,0,0,0,0,0,0,undefined,0,42,17.5971499999996,-83,-42.604450000000725,999,8.316666666666666,Search Turn,0,1,0,0.5,-1,false,false
19:44:05 GMT-0500 Sat Mar 12 2022,true,42,17.598785,-83,-42.602267,260.4375,0,0,0,0,0,0,0,0,0,0,0,0,undefined,0,42,17.597130000000107,-83,-42.60450999999921,235.88,26.65,Search Turn,0,1,0,0.5,-1,false,false
19:44:06 GMT-0500 Sat Mar 12 2022,true,42,17.598651,-83,-42.602466,275.375,0,0,0,0,0,0,0,0,0,0,0,0,undefined,0,42,17.597090000000208,-83,-42.60464999999931,999,7.133333333333334,Search Turn,0,1,0,0.5,-1,false,false
19:44:06 GMT-0500 Sat Mar 12 2022,true,42,17.598284,-83,-42.602978,290.875,0.21386726511337834,0,0,0,0,0,0,0,0,0,0,0,undefined,0,42,17.597090000000208,-83,-42.60462000000007,999,8.2,Search Drive,0,1,1,0.5,-1,false,false
19:44:07 GMT-0500 Sat Mar 12 2022,true,42,17.59797,-83,-42.603254,294.1875,0.2169235682826276,0,0,0,0,0,0,0,0,0,0,0,undefined,0,42,17.597090000000208,-83,-42.60456999999951,999,4.75,Search Drive,0,1,1,0.5,-1,false,false
19:44:07 GMT-0500 Sat Mar 12 2022,true,42,17.597831,-83,-42.603145,298.75,0,0,0,0,0,0,0,0,0,0,0,0,undefined,0,42,17.597139999999854,-83,-42.604779999999664,288.18,44.21666666666667,Search Turn,0,1,0,0.5,-1,false,false
19:44:08 GMT-0500 Sat Mar 12 2022,true,42,17.597796,-83,-42.603274,313.5,0,0,0,0,0,0,0,0,0,0,0,0,undefined,0,42,17.597179999999753,-83,-42.60500999999931,286.39,34.083333333333336,Search Turn,0,1,0,0.5,-1,false,false
19:44:08 GMT-0500 Sat Mar 12 2022,true,42,17.597687,-83,-42.603535,322.375,0.5939957010934621,0,0,0,0,0,0,0,0,0,0,0,undefined,0,42,17.59719000000041,-83,-42.60504000000037,999,2.283333333333333,Search Drive,0,1,1,0.5,-1,false,false
19:44:09 GMT-0500 Sat Mar 12 2022,true,42,17.597472,-83,-42.603737,326.4375,0.6138434788256345,0,0,0,0,0,0,0,0,0,0,0,undefined,0,42,17.597160000000258,-83,-42.60502000000088,150.45,13.516666666666667,Search Drive,0,1,1,0.5,-1,false,false
19:44:09 GMT-0500 Sat Mar 12 2022,true,42,17.597259,-83,-42.603854,330.125,1.2921885139392497,0,0,0,0,0,0,0,0,0,0,0,undefined,0,42,17.59723000000031,-83,-42.60512999999992,308.66,41.233333333333334,Search Drive,0,1,1,0.5,-1,false,false
19:44:10 GMT-0500 Sat Mar 12 2022,true,42,17.596955,-83,-42.603878,333.125,1.6971726286926188,0,0,0,0,0,0,0,0,0,0,0,undefined,0,42,17.597350000000006,-83,-42.60529999999926,321.33,34.833333333333336,Search Drive,0,1,1,0.5,-1,false,false
19:44:10 GMT-0500 Sat Mar 12 2022,true,42,17.596733,-83,-42.603967,336.9375,1.4613638578189854,0,0,0,0,0,0,0,0,0,0,0,undefined,0,42,17.597490000000107,-83,-42.60548000000017,311.47,44.05,Search Drive,0,1,1,0.5,-1,false,false
19:44:11 GMT-0500 Sat Mar 12 2022,true,42,17.59664,-83,-42.604107,339.1875,1.3281149897521585,0,0,0,0,0,0,0,0,0,0,0,undefined,0,42,17.59763000000021,-83,-42.60563000000002,326.38,38.85,Search Drive,0,1,1,0.5,-1,false,false
19:44:11 GMT-0500 Sat Mar 12 2022,true,42,17.596645,-83,-42.604365,343.125,0.896336082610297,0,0,0,0,0,0,0,0,0,0,0,undefined,0,42,17.597749999999905,-83,-42.605750000000626,329.52,39.71666666666667,Search Drive,0,1,1,0.5,-1,false,false
19:44:12 GMT-0500 Sat Mar 12 2022,true,42,17.596857,-83,-42.604721,347.0625,0.2493189710940707,0,0,0,0,0,0,0,0,0,0,0,undefined,0,42,17.597899999999754,-83,-42.605900000000474,324.3,39.56666666666667,Search Drive,0,1,1,0.5,-1,false,false
19:44:12 GMT-0500 Sat Mar 12 2022,true,42,17.597114,-83,-42.605098,350.8125,0.2995509580570304,0,0,0,0,0,0,0,0,0,0,0,undefined,0,42,17.59806000000026,-83,-42.60603000000083,339.24,41.61666666666667,Search Drive,0,1,1,0.5,-1,false,false
19:44:13 GMT-0500 Sat Mar 12 2022,true,42,17.59736,-83,-42.605455,354.875,0.43121563072726643,0,0,0,0,0,0,0,0,0,0,0,undefined,0,42,17.59821000000011,-83,-42.606149999999616,341.6,41.06666666666667,Search Drive,0,1,1,0.5,-1,false,false
19:44:13 GMT-0500 Sat Mar 12 2022,true,42,17.597535,-83,-42.60577,357.625,0.5789401447399013,0,0,0,0,0,0,0,0,0,0,0,undefined,0,42,17.59835000000021,-83,-42.60625000000073,344.04,39.53333333333333,Search Drive,0,1,1,0.5,-1,false,false
19:44:14 GMT-0500 Sat Mar 12 2022,true,42,17.596755,-83,-42.606606,0.9375,0,0,0,0,0,0,0,0,0,0,0,0,undefined,0,42,17.598519999999553,-83,-42.60635000000002,338.99,35.78333333333333,Search Turn,0,1,0,0.5,-1,false,false
19:44:14 GMT-0500 Sat Mar 12 2022,true,42,17.596895,-83,-42.606589,12.6875,0,0,0,0,0,0,0,0,0,0,0,0,undefined,0,42,17.598659999999654,-83,-42.60642000000007,341.41,31.833333333333332,Search Turn,0,1,0,0.5,-1,false,false
19:44:15 GMT-0500 Sat Mar 12 2022,true,42,17.59728,-83,-42.606572,27.875,0.3129649660622515,0,0,0,0,0,0,0,0,0,0,0,undefined,0,42,17.59875000000011,-83,-42.60646000000088,999,3.0166666666666666,Search Drive,0,1,1,0.5,-1,false,false
19:44:15 GMT-0500 Sat Mar 12 2022,true,42,17.597469,-83,-42.606699,30.5625,1.6242207540297149,0,0,0,0,0,0,0,0,0,0,0,undefined,0,42,17.59875000000011,-83,-42.606519999999364,999,6.033333333333333,Search Drive,0,1,1,0.5,-1,false,false
19:44:16 GMT-0500 Sat Mar 12 2022,true,42,17.597417,-83,-42.606927,33.3125,1.4455257935411536,0,0,0,0,0,0,0,0,0,0,0,undefined,0,42,17.59871000000021,-83,-42.60656000000017,999,5.783333333333333,Search Drive,0,1,1,0.5,-1,false,false
19:44:16 GMT-0500 Sat Mar 12 2022,true,42,17.597443,-83,-42.607028,36.1875,1.3438447953945338,0,0,0,0,0,0,0,0,0,0,0,undefined,0,42,17.59886000000006,-83,-42.606509999999616,19.41,35.266666666666666,Search Drive,0,1,1,0.5,-1,false,false
19:44:17 GMT-0500 Sat Mar 12 2022,true,42,17.597477,-83,-42.607159,39.9375,1.6437195685595185,0,0,0,0,0,0,0,0,0,0,0,undefined,0,42,17.59903000000031,-83,-42.606439999999566,20.76,41.583333333333336,Search Drive,0,1,1,0.5,-1,false,false
19:44:17 GMT-0500 Sat Mar 12 2022,true,42,17.59749,-83,-42.607337,43.5625,2.167390351354081,0,0,0,0,0,0,0,0,0,0,0,undefined,0,42,17.59918000000016,-83,-42.60634000000027,26.08,39.733333333333334,Search Drive,0,1,1,0.5,-1,false,false
19:44:18 GMT-0500 Sat Mar 12 2022,true,42,17.597515,-83,-42.607534,47.1875,2.194386733856823,0,0,0,0,0,0,0,0,0,0,0,undefined,0,42,17.599299999999857,-83,-42.606260000000475,26.65,38.2,Search Drive,0,1,1,0.5,-1,false,false
19:44:18 GMT-0500 Sat Mar 12 2022,true,42,17.597685,-83,-42.607558,49.625,1.4597817911842375,0,0,0,0,0,0,0,0,0,0,0,undefined,0,42,17.599449999999706,-83,-42.60613999999987,39.35,46.71666666666667,Search Drive,0,1,1,0.5,-1,false,false
19:44:19 GMT-0500 Sat Mar 12 2022,true,42,17.59787,-83,-42.607524,52.875,1.499355547470578,0,0,0,0,0,0,0,0,0,0,0,undefined,0,42,17.59958000000006,-83,-42.60601999999926,41.25,32.9,Search Drive,0,1,1,0.5,-1,false,false
19:44:19 GMT-0500 Sat Mar 12 2022,true,42,17.598131,-83,-42.60745,57.0625,1.6362793264827515,0,0,0,0,0,0,0,0,0,0,0,undefined,0,42,17.59969000000001,-83,-42.60591999999997,56.79,28.35,Search Drive,0,1,1,0.5,-1,false,false
19:44:20 GMT-0500 Sat Mar 12 2022,true,42,17.598372,-83,-42.60741,56.5625,1.6229604030500835,0,0,0,0,0,0,0,0,0,0,0,undefined,0,42,17.599820000000364,-83,-42.60579999999936,34.28,35.1,Search Drive,0,1,1,0.5,-1,false,false
19:44:20 GMT-0500 Sat Mar 12 2022,true,42,17.598598,-83,-42.607364,60.4375,2.066446936958129,0,0,0,0,0,0,0,0,0,0,0,undefined,0,42,17.59990999999991,-83,-42.60565999999926,47.23,26.75,Search Drive,0,1,1,0.5,-1,false,false
19:44:21 GMT-0500 Sat Mar 12 2022,true,42,17.59879,-83,-42.607358,62,1.6930232554142695,0,0,0,0,0,0,0,0,0,0,0,undefined,0,42,17.60001000000011,-83,-42.60551999999916,44.78,36.03333333333333,Search Drive,0,1,1,0.5,-1,false,false
19:44:21 GMT-0500 Sat Mar 12 2022,true,42,17.598952,-83,-42.607279,63.1875,1.2407309315078667,0,0,0,0,0,0,0,0,0,0,0,undefined,0,42,17.60005000000001,-83,-42.60541999999987,47.97,36.166666666666664,Search Drive,0,1,1,0.5,-1,false,false
19:44:22 GMT-0500 Sat Mar 12 2022,true,42,17.599169,-83,-42.607113,68.1875,1.244918287004191,0,0,0,0,0,0,0,0,0,0,0,undefined,0,42,17.60015999999996,-83,-42.60521999999946,54.4,48.81666666666667,Search Drive,0,1,1,0.5,-1,false,false
19:44:22 GMT-0500 Sat Mar 12 2022,true,42,17.599392,-83,-42.606877,77,0.7913674680905062,0,0,0,0,0,0,0,0,0,0,0,undefined,0,42,17.60026999999991,-83,-42.605069999999614,58.56,55.06666666666667,Search Drive,0,1,1,0.5,-1,false,false
